id	line_name	station_name	lon	lat	route_numbers
0	Sokolnicheskaya	Севастопольский просп. (к/ст, выс.)	37.56234623	55.64989437	А1
1	Sokolnicheskaya	Просп. Вернадского	37.52379363	55.68538299	А1
2	Sokolnicheskaya	Социальный центр	37.52856799	55.68332838	А1
3	Sokolnicheskaya	Ул. Крупской, 2	37.53294736	55.68080015	А1
4	Sokolnicheskaya	Социальный центр	37.52825403	55.68279254	А1
5	Sokolnicheskaya	Кладбище Губцево	37.24027298	55.51398372	А1001
6	Sokolnicheskaya	Кладбище Губцево	37.24066968	55.51470958	А1001
7	Sokolnicheskaya	Садовое товарищество Луч	37.23585418	55.52840364	А1001
8	Sokolnicheskaya	Садовое товарищество Луч	37.23561312	55.52912283	А1001
9	Sokolnicheskaya	Поворот на Птичное	37.22164861	55.53303831	А1001
10	Sokolnicheskaya	Верховье	37.22808263	55.53259815	А1001
11	Sokolnicheskaya	Верховье	37.2295208	55.53221196	А1001
12	Sokolnicheskaya	Поворот на Клоково	37.23854476	55.52392036	А1001
13	Sokolnicheskaya	Поворот на Клоково	37.23854588	55.5223811	А1001
14	Sokolnicheskaya	Сады Песчаные	37.05927949	55.22723084	А1004
15	Sokolnicheskaya	Лесхоз	37.11822759	55.26779004	А1004
16	Sokolnicheskaya	Лесхоз	37.11962678	55.26803079	А1004
17	Sokolnicheskaya	Кресты - 2	37.09649155	55.25921091	А1004
18	Sokolnicheskaya	Кресты - 1	37.10313387	55.26174459	А1004
19	Sokolnicheskaya	Кресты - 1	37.10181904	55.26154466	А1004
20	Sokolnicheskaya	Кресты - 2	37.09521964	55.25900493	А1004
21	Sokolnicheskaya	Кленовка	37.05451485	55.24312634	А1004
22	Sokolnicheskaya	Кленовка	37.05334838	55.24303094	А1004
23	Sokolnicheskaya	Бунчиха	37.03792499	55.2367611	А1004
24	Sokolnicheskaya	Сады Песчаные	37.0589054491	55.2278880791	А1004
25	Sokolnicheskaya	Рогово	37.07579719	55.21618024	А1004
26	Sokolnicheskaya	Соколенок	37.0892814	55.2567041	А1004
27	Sokolnicheskaya	Бунчиха	37.03750847	55.23608474	А1004
28	Sokolnicheskaya	СНТ Витамины	37.0598560037	55.2454476904	А1004
29	Sokolnicheskaya	СНТ Витамины	37.06213359	55.24603514	А1004
30	Sokolnicheskaya	Лесная поляна	37.06955045282617	55.249143607695224	А1004
31	Sokolnicheskaya	Лесная поляна	37.07062309383841	55.249291501275934	А1004
32	Sokolnicheskaya	Пов. на Васюнино	37.0241506122	55.2318056112	А1004
33	Sokolnicheskaya	Пов. на Васюнино	37.024910408	55.2318330429	А1004
34	Sokolnicheskaya	Сады Медик	37.00072508	55.22288254	А1004
35	Sokolnicheskaya	Сады Медик	37.00137559	55.2227571	А1004
36	Sokolnicheskaya	Каменка	36.99213559	55.21966204	А1004
37	Sokolnicheskaya	СНТ Застройщик	37.14916756	55.27956495	А1004
38	Sokolnicheskaya	СНТ Застройщик	37.1505483	55.27987316	А1004
39	Sokolnicheskaya	Миграционный центр	37.18245936	55.29209302	А1004
40	Sokolnicheskaya	Миграционный центр	37.18111367	55.29181298	А1004
41	Sokolnicheskaya	Сахарово	37.19290681	55.29633935	А1004
42	Sokolnicheskaya	Сахарово	37.19353837	55.29634705	А1004
43	Sokolnicheskaya	Баранково	37.15486198	55.28176724	А1004
44	Sokolnicheskaya	Баранково	37.15661038	55.28221904	А1004
45	Sokolnicheskaya	Поворот на Вороново	37.20249288	55.30006181	А1004
46	Sokolnicheskaya	СНТ Керамик	37.07567143	55.25145628	А1004
47	Sokolnicheskaya	СНТ Керамик	37.07613014	55.25140866	А1004
48	Sokolnicheskaya	Псковская ул.	37.5543586847	55.9003886998	А1007
49	Sokolnicheskaya	Псковская ул., 6	37.55014579	55.90266694	А1007
50	Sokolnicheskaya	Псковская ул., 12	37.55332467375429	55.905847459523265	А1007
51	Sokolnicheskaya	Пос. Севводстрой	37.55657082	55.90229719	А1007
52	Sokolnicheskaya	Псковская ул., 2	37.5549984209	55.9004515725	А1007
53	Sokolnicheskaya	Алтуфьевское ш., 95	37.58795605	55.90220573	А1007
54	Sokolnicheskaya	Ин-т им. Герцена	37.55751537	55.7802898	А101
55	Sokolnicheskaya	К/т Первомайский	37.80513675	55.79345224	А1013
56	Sokolnicheskaya	К/т Первомайский	37.80621095	55.7932161	А1013
57	Sokolnicheskaya	13-я Парковая ул.	37.81224419	55.79356692	А1013
58	Sokolnicheskaya	13-я Парковая ул.	37.81228053	55.79332902	А1013
59	Sokolnicheskaya	Храм	37.8582978	55.81972895	А1013
60	Sokolnicheskaya	15-я Парковая ул.	37.8180954	55.80780154	А1013
61	Sokolnicheskaya	Щелковское ш.	37.81670981	55.81054678	А1013
62	Sokolnicheskaya	Щелковское ш.	37.81708005	55.81035044	А1013
63	Sokolnicheskaya	15-я Парковая ул.	37.81800067	55.80734358	А1013
64	Sokolnicheskaya	Метро Планерная (выс.)	37.43494376	55.86319545	А102
65	Sokolnicheskaya	Ул. Фабрициуса	37.45460229	55.8453467	А102
66	Sokolnicheskaya	Парусный пр.	37.45369279	55.84797119	А102
67	Sokolnicheskaya	Ул. Свободы, 63	37.45124155	55.8551711	А102
68	Sokolnicheskaya	Поворот на Дубки	36.894805589	55.4495964067	А1023
69	Sokolnicheskaya	Киевский	36.8640745599	55.4320146376	А1023
70	Sokolnicheskaya	Киевский	36.86531074	55.43242464	А1023
71	Sokolnicheskaya	Поворот на Дубки	36.8932057759	55.449199053	А1023
72	Sokolnicheskaya	Рассудово	36.9288322873	55.4707542454	А1023
73	Sokolnicheskaya	Пов. на Поливаново	37.39810309	55.42511126	А1024
74	Sokolnicheskaya	Щапово - 2	37.40540557	55.42023781	А1024
75	Sokolnicheskaya	Щапово - 2	37.40615109	55.41994867	А1024
76	Sokolnicheskaya	Щапово - 1	37.40810754	55.41737214	А1024
77	Sokolnicheskaya	Щапово - 1	37.40790262	55.41686698	А1024
78	Sokolnicheskaya	Комплекс	37.41504647	55.41047011	А1024
79	Sokolnicheskaya	Комплекс	37.41386149	55.41113249	А1024
80	Sokolnicheskaya	Сады	37.42161205	55.40696915	А1024
81	Sokolnicheskaya	Сады	37.42231619	55.40627494	А1024
82	Sokolnicheskaya	45-й км.	37.27720578	55.42879604	А1024
83	Sokolnicheskaya	45-й км.	37.27730542	55.42903609	А1024
84	Sokolnicheskaya	Октябрьская ул.	37.2810869	55.4258225	А1024
85	Sokolnicheskaya	Красное	37.29616415	55.42448832	А1024
86	Sokolnicheskaya	Красное	37.29559678	55.42467314	А1024
87	Sokolnicheskaya	Военный санаторий Пахра	37.30609557	55.42871502	А1024
88	Sokolnicheskaya	Военный санаторий Пахра	37.30491686	55.42787072	А1024
89	Sokolnicheskaya	Софьино	37.31698907	55.4309577	А1024
90	Sokolnicheskaya	ЖК Остров Эрин	37.33001767	55.43216768	А1024
91	Sokolnicheskaya	ЖК Остров Эрин	37.32809888	55.43218523	А1024
92	Sokolnicheskaya	Дерюбрихово	37.33742449	55.43253495	А1024
93	Sokolnicheskaya	Дерюбрихово	37.33598235	55.43278992	А1024
94	Sokolnicheskaya	Кузенево	37.35112859	55.42977697	А1024
95	Sokolnicheskaya	Кузенево	37.35046039	55.42980344	А1024
96	Sokolnicheskaya	Известия	37.36746848	55.43321554	А1024
97	Sokolnicheskaya	Известия	37.36630515	55.43359996	А1024
98	Sokolnicheskaya	Шаганино	37.37557602	55.43380956	А1024
99	Sokolnicheskaya	Шаганино	37.37583361	55.43350735	А1024
100	Sokolnicheskaya	Софьино	37.31876639	55.43091773	А1024
101	Sokolnicheskaya	Октябрьская ул.	37.28077327	55.42568317	А1024
102	Sokolnicheskaya	Поселок №3	37.38839157	55.347344	А1026
103	Sokolnicheskaya	Дачное товарищество	37.36870623	55.35030687	А1026
104	Sokolnicheskaya	Дачное товарищество	37.36871569	55.34998894	А1026
105	Sokolnicheskaya	Поселок Курилово	37.37567579	55.37292014	А1026
106	Sokolnicheskaya	Косовка	37.14324633	55.30530599	А1028
107	Sokolnicheskaya	Косовка	37.14424868	55.30586524	А1028
108	Sokolnicheskaya	Семенково	37.12755208	55.29013184	А1028
109	Sokolnicheskaya	Семенково	37.12831317	55.29040964	А1028
110	Sokolnicheskaya	Львово	37.11480954	55.27785953	А1028
111	Sokolnicheskaya	Львово	37.11611566	55.27873119	А1028
112	Sokolnicheskaya	Комбикормовый завод	37.12351699	55.28591864	А1028
113	Sokolnicheskaya	Комбикормовый завод	37.12220904	55.28497369	А1028
114	Sokolnicheskaya	Усадьба Вороново	37.15328941	55.31575675	А1028
115	Sokolnicheskaya	Усадьба Вороново	37.15351644	55.31532086	А1028
116	Sokolnicheskaya	Бунчиха	37.03663968	55.2365676	А1028
117	Sokolnicheskaya	Чусовская ул.	37.81061171	55.81039741	А102к
118	Sokolnicheskaya	Метро Новые Черемушки	37.55489831	55.66862459	А103
119	Sokolnicheskaya	Ул. Акад. Полякова	37.55840109	55.66738281	А103
120	Sokolnicheskaya	Драмтеатр	37.54069468	55.69080715	А103
121	Sokolnicheskaya	Драмтеатр	37.54002938	55.6908799	А103
122	Sokolnicheskaya	23-й кв. Новых Черемушек	37.56489397	55.66897614	А103
123	Sokolnicheskaya	23-й кв. Новых Черемушек	37.56548332	55.66849996	А103
124	Sokolnicheskaya	Ул. Ивана Бабушкина	37.55548976	55.68247921	А103
125	Sokolnicheskaya	Центр здоровья детей	37.54802291	55.68660988	А103
126	Sokolnicheskaya	Рябиновая улица, 14	37.42252066	55.71378971	А103
127	Sokolnicheskaya	93-й кв. Кунцева	37.42362274	55.71650216	А103
128	Sokolnicheskaya	Рябиновая улица, 14	37.42299797	55.71386623	А103
129	Sokolnicheskaya	Можайское ш.	37.4236718	55.71906429	А103
130	Sokolnicheskaya	93-й кв. Кунцева	37.42310696	55.71642729	А103
131	Sokolnicheskaya	Верейская ул.	37.42350089	55.7128852	А103
132	Sokolnicheskaya	Верейская ул., 41	37.43096018	55.71293941	А103
133	Sokolnicheskaya	МРТЗ	37.43574215	55.71202373	А103
134	Sokolnicheskaya	Верейская ул., 25	37.44063312	55.71157349	А103
135	Sokolnicheskaya	Верейская ул., 25	37.43941029	55.71183636	А103
136	Sokolnicheskaya	Верейская ул., 41	37.43002496	55.71331761	А103
137	Sokolnicheskaya	Школа-интернат № 17	37.55191024	55.66733882	А103
138	Sokolnicheskaya	Кутузовский просп.	37.48837616	55.73018447	А103
139	Sokolnicheskaya	Метро Славянский бульвар	37.47401503	55.72795066	А103
140	Sokolnicheskaya	Староможайское ш.	37.4808279359	55.7291039987	А103
141	Sokolnicheskaya	Можайское ш.	37.42415999	55.71899711	А103
142	Sokolnicheskaya	Метро Славянский бульвар	37.47258193	55.72844133	А103
143	Sokolnicheskaya	Ул. Акад. Полякова	37.56010509	55.66702876	А103
144	Sokolnicheskaya	Метро Новые Черемушки	37.55438337	55.66895496	А103
145	Sokolnicheskaya	Ул. Генерала Дорохова	37.44533922	55.70997808	А103
146	Sokolnicheskaya	Метро Новые Черемушки	37.55318041	55.67134726	А103
147	Sokolnicheskaya	Концертный зал Оркестрион	37.54949705	55.67239648	А103
148	Sokolnicheskaya	Концертный зал Оркестрион	37.54858577	55.67185362	А103
149	Sokolnicheskaya	Ул. Лебедева	37.5283406	55.69751984	А103
150	Sokolnicheskaya	Ул. Архитектора Власова, 25	37.54883718	55.6756522	А103
151	Sokolnicheskaya	Ул. Архитектора Власова, 7	37.5531251	55.6796204	А103
152	Sokolnicheskaya	Ул. Архитектора Власова, 7	37.55271694	55.67960601	А103
153	Sokolnicheskaya	Ул. Архитектора Власова, 25	37.5477087	55.67491488	А103
154	Sokolnicheskaya	Ул. Архитектора Власова, 13	37.5518054	55.67839217	А103
155	Sokolnicheskaya	Ул. Архитектора Власова, 13	37.55114448	55.67810715	А103
156	Sokolnicheskaya	Метро Новые Черемушки	37.5536799	55.6696374	А103
157	Sokolnicheskaya	Центр здоровья детей	37.54784886	55.68637382	А103
158	Sokolnicheskaya	Ознобишино - 2	37.44037389	55.39829311	А1030
159	Sokolnicheskaya	Молокозавод	37.4585448311	55.4039793773	А1030
160	Sokolnicheskaya	Троицкое - 2	37.41478114	55.38567496	А1030
161	Sokolnicheskaya	Ознобишино - 1	37.45037979	55.40117964	А1030
162	Sokolnicheskaya	Варшавское ш. - 49-й км.	37.39703573	55.37697303	А1030
163	Sokolnicheskaya	Троицкое - 1	37.42045139	55.38796493	А1030
164	Sokolnicheskaya	Европейская долина	37.38930859	55.43007744	А1032
165	Sokolnicheskaya	Поворот на пос. № 3 - 52-й км.	37.35730609	55.35930481	А1036
166	Sokolnicheskaya	Поворот на пос. № 3 - 52-й км.	37.35894133	55.3595473	А1036
167	Sokolnicheskaya	14-й км.	37.36945221	55.36392885	А1036
168	Sokolnicheskaya	14-й км.	37.3706185	55.36412218	А1036
169	Sokolnicheskaya	Курилово	37.38471691	55.36977172	А1036
170	Sokolnicheskaya	Курилово	37.38640198	55.37020503	А1036
171	Sokolnicheskaya	Варшавское ш. - 49-й км.	37.39498722	55.37606049	А1036
172	Sokolnicheskaya	Киселево	37.34247878	55.35326648	А1036
173	Sokolnicheskaya	Пионерский лагерь	37.11465839	55.32639838	А1036
174	Sokolnicheskaya	Юрьевка	37.10047227	55.32568763	А1036
175	Sokolnicheskaya	Троица	37.07852776	55.323192	А1036
176	Sokolnicheskaya	Свитино	37.07096638	55.32110307	А1036
177	Sokolnicheskaya	Озерное	37.05571699	55.31826937	А1036
178	Sokolnicheskaya	Сады	37.02681286	55.31524103	А1036
179	Sokolnicheskaya	Пионерский лагерь	37.11525639	55.32616442	А1036
180	Sokolnicheskaya	Юрьевка	37.10114083	55.3257397	А1036
181	Sokolnicheskaya	Троица	37.07891964	55.32324122	А1036
182	Sokolnicheskaya	Свитино	37.07158544	55.3212277	А1036
183	Sokolnicheskaya	Озерное	37.057555	55.31859402	А1036
184	Sokolnicheskaya	Администрация	37.15942959	55.31938074	А1036
185	Sokolnicheskaya	Поворот на Юдановку	37.23272552	55.31128628	А1036
186	Sokolnicheskaya	Коротыгино	37.24446645	55.31608522	А1036
187	Sokolnicheskaya	Коротыгино	37.24551899	55.31616122	А1036
188	Sokolnicheskaya	Лукошкино - 2	37.25631505	55.32063013	А1036
189	Sokolnicheskaya	Лукошкино - 2	37.25692886	55.32056609	А1036
190	Sokolnicheskaya	Лукошкино - 1	37.26724246	55.32480844	А1036
191	Sokolnicheskaya	Лукошкино - 1	37.26829153	55.32488615	А1036
192	Sokolnicheskaya	Пов. на Дубовский	37.29615211	55.33557406	А1036
193	Sokolnicheskaya	Пов. на Дубовский	37.2962883	55.3359581	А1036
194	Sokolnicheskaya	Молчаново	37.31744247	55.34408349	А1036
195	Sokolnicheskaya	Молчаново	37.31731603	55.34364404	А1036
196	Sokolnicheskaya	Киселево-2	37.33441594	55.35052008	А1036
197	Sokolnicheskaya	Киселево-2	37.33530425	55.35058227	А1036
198	Sokolnicheskaya	Киселево	37.34048725	55.35287052	А1036
199	Sokolnicheskaya	С/х Вороново	37.17275655	55.31100079	А1036
200	Sokolnicheskaya	С/х Вороново	37.17187248	55.31145414	А1036
201	Sokolnicheskaya	Вороново - 2	37.15384449	55.31808124	А1036
202	Sokolnicheskaya	Яковлевское	36.9367694473	55.4646724321	А1038
203	Sokolnicheskaya	Яковлевское	36.9377460564	55.4645066141	А1038
204	Sokolnicheskaya	Киевское ш.	36.92758784	55.47141451	А1038
205	Sokolnicheskaya	Киевское ш.	36.92770988	55.47256644	А1038
206	Sokolnicheskaya	Кузнецово	36.94014928	55.45374062	А1038
207	Sokolnicheskaya	Кузнецово	36.94028378	55.45424044	А1038
208	Sokolnicheskaya	П/л Тимуровец	36.94939137	55.44469611	А1038
209	Sokolnicheskaya	П/л Тимуровец	36.95015672	55.44422383	А1038
210	Sokolnicheskaya	Ул. Атласова	37.3549514519	55.5983656545	А1039
211	Sokolnicheskaya	Ул. Атласова	37.35556031	55.59813471	А1039
212	Sokolnicheskaya	Физкультурно-спортивный комплекс	37.3557736643	55.6013093315	А1039
213	Sokolnicheskaya	Физкультурно-спортивный комплекс	37.3564573437	55.6017162397	А1039
214	Sokolnicheskaya	П/л им. Гагарина	37.35297822	55.58754766	А1039
215	Sokolnicheskaya	П/л им. Гагарина	37.35229619	55.58819258	А1039
216	Sokolnicheskaya	Верхнее Валуево	37.35692623	55.57945499	А1039
217	Sokolnicheskaya	Администрация поселения Филимонковское	37.35407969	55.57599384	А1039
218	Sokolnicheskaya	Администрация поселения Филимонковское	37.35363909	55.5768009	А1039
219	Sokolnicheskaya	Валуево	37.35683525	55.57312259	А1039
220	Sokolnicheskaya	Валуево	37.35711878	55.57258254	А1039
221	Sokolnicheskaya	Новозаводская ул.	37.4917252789	55.7530332018	А104
222	Sokolnicheskaya	Лес (выс., пос.)	37.48419928	55.75277495	А104
223	Sokolnicheskaya	Инициативная ул., 5	37.45827267	55.71644497	А104
224	Sokolnicheskaya	Инициативная ул., 9	37.45475759	55.71579112	А104
225	Sokolnicheskaya	Интернат	37.46177479	55.71910359	А104
226	Sokolnicheskaya	Кременчугская ул.	37.46100128	55.71693573	А104
227	Sokolnicheskaya	Совхоз Ульяновский	37.34457343	55.6163604	А1042
228	Sokolnicheskaya	Совхоз Ульяновский	37.34550917	55.61535847	А1042
229	Sokolnicheskaya	Рассказовка - 2	37.33537759	55.63114521	А1042
230	Sokolnicheskaya	Саларьево-2	37.43925578	55.62630215	А1042
231	Sokolnicheskaya	Саларьево-2	37.43974386	55.62629249	А1042
232	Sokolnicheskaya	Саларьево-1	37.44579989	55.62119514	А1042
233	Sokolnicheskaya	Румянцево	37.43217044	55.62966056	А1042
234	Sokolnicheskaya	Крематорий	37.45255028	55.60932259	А1042
235	Sokolnicheskaya	Хованское кладб. (сев.)	37.44920763	55.6152023	А1042
236	Sokolnicheskaya	Хованское кладб. (сев.)	37.44907257	55.61482435	А1042
237	Sokolnicheskaya	Крематорий	37.45303663	55.60787204	А1042
238	Sokolnicheskaya	Ликова	37.27467853	55.61974961	А1042
239	Sokolnicheskaya	Изварино	37.2663639745	55.6235820544	А1043
240	Sokolnicheskaya	Школа	37.26605529	55.63228274	А1043
241	Sokolnicheskaya	МВТ	37.26197498	55.63723354	А1043
242	Sokolnicheskaya	Правление	37.2671213728	55.6442162613	А1043
243	Sokolnicheskaya	Ст. Внуково	37.26992929	55.64820704	А1043
244	Sokolnicheskaya	Правление	37.2687029594	55.6456783	А1043
245	Sokolnicheskaya	МВТ	37.26170449	55.63681614	А1043
246	Sokolnicheskaya	Школа	37.2654740857	55.6327922452	А1043
247	Sokolnicheskaya	Изварино	37.26498146	55.62415116	А1043
248	Sokolnicheskaya	Новомосковский	37.54853856	55.49114494	А1045
249	Sokolnicheskaya	Московская ул.	37.54706978	55.49582704	А1045
250	Sokolnicheskaya	Московская ул.	37.54737803	55.4956666	А1045
251	Sokolnicheskaya	Школьная ул.	37.54681379	55.49833305	А1045
252	Sokolnicheskaya	Ул. Чехова	37.55588688	55.50010253	А1045
253	Sokolnicheskaya	Ул. Чехова	37.55639313	55.50014456	А1045
254	Sokolnicheskaya	Галерея	37.55945859	55.50246147	А1045
255	Sokolnicheskaya	Галерея	37.5593649	55.50286715	А1045
256	Sokolnicheskaya	Школа	37.49856234	55.49339583	А1045
257	Sokolnicheskaya	Школа	37.49944219	55.49340308	А1045
258	Sokolnicheskaya	Сады Прометей	37.48565446	55.49503511	А1045
259	Sokolnicheskaya	Сады Прометей	37.48477839	55.49590648	А1045
260	Sokolnicheskaya	Пос. Остафьево (выс., пос.)	37.48377884	55.49772738	А1045
261	Sokolnicheskaya	Поликлиника	37.18237896	55.41212402	А1047
262	Sokolnicheskaya	Поликлиника	37.18140901	55.41189989	А1047
263	Sokolnicheskaya	Новомихайловское	37.17799541	55.4096331	А1047
264	Sokolnicheskaya	Новомихайловское	37.17737291	55.40952099	А1047
265	Sokolnicheskaya	Курорт Михайловское	37.16816689	55.41114832	А1047
266	Sokolnicheskaya	Курорт Михайловское	37.1676883	55.41148258	А1047
267	Sokolnicheskaya	Шишкин лес	37.19076444	55.41449824	А1047
268	Sokolnicheskaya	Шишкин лес	37.19014328	55.41419523	А1047
269	Sokolnicheskaya	49-й км.	37.23618937	55.39869857	А1047
270	Sokolnicheskaya	Дешино	37.20003197	55.40908614	А1047
271	Sokolnicheskaya	Дешино	37.2	55.40946083	А1047
272	Sokolnicheskaya	Терехово	37.20471895	55.40631781	А1047
273	Sokolnicheskaya	Терехово	37.20513571	55.40638994	А1047
274	Sokolnicheskaya	Плесково	37.09809498	55.41421264	А1047
275	Sokolnicheskaya	Дровнино	37.10381308	55.41438244	А1047
276	Sokolnicheskaya	Дровнино	37.10419688	55.41442364	А1047
277	Sokolnicheskaya	Ярцево	37.11505634	55.4142951	А1047
278	Sokolnicheskaya	Ярцево	37.11422188	55.41458706	А1047
279	Sokolnicheskaya	Лужки	37.12966757	55.41693164	А1047
280	Sokolnicheskaya	Лужки	37.12918566	55.4168962	А1047
281	Sokolnicheskaya	Автобаза	37.15458223	55.41253197	А1047
282	Sokolnicheskaya	Автобаза	37.15453639	55.41272954	А1047
283	Sokolnicheskaya	Ознобишино - 2	37.43925556	55.39800315	А1048
284	Sokolnicheskaya	Ознобишино - 1	37.4495261668	55.4011639321	А1048
285	Sokolnicheskaya	Молокозавод	37.4576134195	55.4039973122	А1048
286	Sokolnicheskaya	Троицкое - 2	37.41390415	55.38562013	А1048
287	Sokolnicheskaya	Троицкое - 1	37.42101764	55.38854425	А1048
288	Sokolnicheskaya	Киевский	36.8637950816	55.4280647662	А1049к
289	Sokolnicheskaya	Киевский	36.86281876	55.4287817	А1049к
290	Sokolnicheskaya	Ул. Плеханова	37.75707376	55.75942162	А104к
291	Sokolnicheskaya	Главная ал.	37.76869093	55.76171647	А104к
292	Sokolnicheskaya	Ул. Плеханова	37.75846418	55.75927061	А104к
293	Sokolnicheskaya	Главная ал.	37.7654846	55.76062382	А104к
294	Sokolnicheskaya	К/т Слава	37.77385258	55.76269709	А104к
295	Sokolnicheskaya	Метро Сокол	37.50972757	55.80502187	А105
296	Sokolnicheskaya	Ленинградский просп.	37.5102902	55.80489762	А105
297	Sokolnicheskaya	Троллейбусный парк	37.50578929	55.80989864	А105
298	Sokolnicheskaya	1-я ул. 8-го Марта	37.548412938	55.8011267664	А105
299	Sokolnicheskaya	4-я ул. 8-го Марта	37.54517782	55.80315252	А105
300	Sokolnicheskaya	Ленинградский рынок - К/т Баку	37.52945405	55.80877473	А105
301	Sokolnicheskaya	Российская открытая академия транспорта	37.52573767	55.80972867	А105
302	Sokolnicheskaya	1-й Балтийский пер.	37.5202407	55.81113993	А105
303	Sokolnicheskaya	Ул. Черняховского	37.53737245	55.80668856	А105
304	Sokolnicheskaya	Метро Сокол	37.51136505	55.80697506	А105
305	Sokolnicheskaya	Часовая ул.	37.51490545	55.81095924	А105
306	Sokolnicheskaya	Метро Динамо	37.55567354	55.79188221	А105
307	Sokolnicheskaya	Ул. Акад. Ильюшина	37.54201025	55.80499526	А105
308	Sokolnicheskaya	Петровско-Разумовская ал.	37.55885204	55.79601004	А105
309	Sokolnicheskaya	Планетная ул.	37.55419968	55.79771583	А105
310	Sokolnicheskaya	МЦД Щукинская	37.4596815	55.8091509	А105
311	Sokolnicheskaya	К/т Юность	37.49688573	55.79537896	А105
312	Sokolnicheskaya	Ул. Алабяна	37.50789427	55.80202738	А105
313	Sokolnicheskaya	Ул. Алабяна	37.50817902	55.80347413	А105
314	Sokolnicheskaya	Ул. Левитана	37.50422436	55.80005809	А105
315	Sokolnicheskaya	Ул. Левитана	37.50534398	55.80022845	А105
316	Sokolnicheskaya	Путевой дворец	37.54849025	55.79263254	А105
317	Sokolnicheskaya	Пл. Марины Расковой	37.51956515	55.80328155	А105
318	Sokolnicheskaya	Ул. Лизы Чайкиной	37.52599006	55.8016488	А105
319	Sokolnicheskaya	Спортивный комплекс ЦСКА	37.53983798	55.79642625	А105
320	Sokolnicheskaya	Метро Аэропорт (южн.)	37.53292592	55.7994667	А105
321	Sokolnicheskaya	Ул. Константина Симонова	37.53713649	55.79765485	А105
322	Sokolnicheskaya	Метро Щукинская (к/ст)	37.46100652	55.81012065	А105
323	Sokolnicheskaya	1-й Пехотный пер.	37.47673416	55.80552919	А105
324	Sokolnicheskaya	1-й Пехотный пер.	37.47660275	55.80425072	А105
325	Sokolnicheskaya	Площадь Академика Курчатова	37.47701658	55.80330442	А105
326	Sokolnicheskaya	Ул. Марш. Василевского	37.47380771	55.80370755	А105
327	Sokolnicheskaya	Метро Щукинская (выс.)	37.46587713	55.80784919	А105
328	Sokolnicheskaya	Ул. Марш. Василевского	37.47230885	55.80428224	А105
329	Sokolnicheskaya	Метро Щукинская	37.46552057	55.80774806	А105
330	Sokolnicheskaya	Сосновая ул.	37.47964794	55.80676444	А105
331	Sokolnicheskaya	Детский сад	37.48400637	55.80634772	А105
332	Sokolnicheskaya	1-й Волоколамский пр.	37.49033661	55.80305908	А105
333	Sokolnicheskaya	Почта	37.49210035	55.80096192	А105
334	Sokolnicheskaya	2-й Пехотный пер.	37.48890968	55.80447564	А105
335	Sokolnicheskaya	52-я гор. б-ца	37.48431004	55.80571554	А105
336	Sokolnicheskaya	Детский сад	37.48307023	55.80702966	А105
337	Sokolnicheskaya	Сосновая ул.	37.47847049	55.80690064	А105
338	Sokolnicheskaya	Ул. Марш. Конева, 5	37.49042261	55.79828727	А105
339	Sokolnicheskaya	Метро Октябрьское поле	37.4904063	55.7952311	А105
340	Sokolnicheskaya	52-я гор. б-ца	37.48559672	55.80483956	А105
341	Sokolnicheskaya	Почта	37.49206711	55.80137286	А105
342	Sokolnicheskaya	1-й Волоколамский пр.	37.49077163	55.80282528	А105
343	Sokolnicheskaya	Ул. Марш. Конева, 5	37.49103925	55.79854676	А105
344	Sokolnicheskaya	Мост Победы	37.50317078	55.81346924	А105
345	Sokolnicheskaya	Беловежская улица	37.39240935	55.70716646	А1056
346	Sokolnicheskaya	Беловежская ул.	37.39230767	55.70633727	А1056
347	Sokolnicheskaya	4-я ул. 8-го Марта	37.54618946	55.80222889	А105К
348	Sokolnicheskaya	1-я ул. 8-го Марта	37.54935307	55.80027904	А105К
349	Sokolnicheskaya	Ул. Акад. Ильюшина	37.54265168	55.80429594	А105К
350	Sokolnicheskaya	2-й Балтийский пер.	37.52396967	55.80644299	А105К
351	Sokolnicheskaya	Ленинградский рынок - К/т Баку	37.52821794	55.80531741	А105К
352	Sokolnicheskaya	Ул. Усиевича	37.53504676	55.80412985	А105К
353	Sokolnicheskaya	Головановский пер.	37.51801851	55.80801624	А105К
354	Sokolnicheskaya	Метро Сокол	37.51242901	55.80717131	А105К
355	Sokolnicheskaya	Балтийская ул.	37.51459338	55.80891553	А105К
356	Sokolnicheskaya	Ул. Черняховского	37.53852721	55.80616997	А105К
357	Sokolnicheskaya	Петровско-Разумовская ал.	37.55895913	55.79487824	А105К
358	Sokolnicheskaya	Метро Петровский парк	37.55799903	55.79305042	А105К
359	Sokolnicheskaya	Планетная ул.	37.55490375	55.79732799	А105К
360	Sokolnicheskaya	Новохохловская ул., 3	37.7108763	55.7318648	А106
361	Sokolnicheskaya	Новохохловская ул., 11	37.70941725	55.72875593	А106
362	Sokolnicheskaya	Новохохловская ул., 11	37.70873949	55.72956769	А106
363	Sokolnicheskaya	Новохохловская ул., 3	37.71155488	55.73226769	А106
364	Sokolnicheskaya	Химчистка	37.71346473	55.72562256	А106
365	Sokolnicheskaya	Химчистка	37.71339078	55.72541716	А106
366	Sokolnicheskaya	Новоспасский мост	37.64950848	55.72872076	А106
367	Sokolnicheskaya	Кожевническая ул.	37.642891718172784	55.73040087767273	А106
368	Sokolnicheskaya	Кожевническая ул.	37.6435100968	55.7300088272	А106
369	Sokolnicheskaya	Новоспасский мост	37.65044572	55.72824989	А106
370	Sokolnicheskaya	Дербеневская ул.	37.65145562	55.72566468	А106
371	Sokolnicheskaya	Поликлиника	37.6532731	55.72498684	А106
372	Sokolnicheskaya	Народная ул.	37.6501710258	55.7386399118	А106
373	Sokolnicheskaya	Стадион	37.79441321	55.64186635	А1063
374	Sokolnicheskaya	Филиал больницы им. Демихова	37.80284098	55.64107987	А1063
375	Sokolnicheskaya	МКАД	37.8162948702	55.641040483	А1063
376	Sokolnicheskaya	Детская школа искусств	37.75034141	55.63423424	А1063
377	Sokolnicheskaya	Метро Алма-Атинская	37.76339018	55.63374432	А1063
378	Sokolnicheskaya	3-й мкр. Братеева	37.76591119	55.63549816	А1063
379	Sokolnicheskaya	Управл. соц. защиты Братеево	37.76010714	55.63303809	А1063
380	Sokolnicheskaya	Братеевская ул., 23	37.75593382	55.63161839	А1063
381	Sokolnicheskaya	Управл. соц. защиты Братеево	37.76144942	55.63316277	А1063
382	Sokolnicheskaya	ТЭЦ № 22	37.8073537342	55.6327632481	А1063
383	Sokolnicheskaya	Алексеево	37.79807233	55.62671401	А1063
384	Sokolnicheskaya	Городецкая ул.	37.86658874	55.7406752	А1064
385	Sokolnicheskaya	Городецкая ул., 12	37.86776456	55.73870916	А1064
386	Sokolnicheskaya	Неманский пр., 11	37.39195644	55.80835922	А1067
387	Sokolnicheskaya	Универсам	37.39527612	55.79957319	А1067
388	Sokolnicheskaya	Школа им. Марины Цветаевой	37.40174175	55.79932352	А1067
389	Sokolnicheskaya	Ул. Кулакова (выс.)	37.39175158	55.80034187	А1067
390	Sokolnicheskaya	Отделение социальной защиты населения	37.39496481	55.80508518	А1067
391	Sokolnicheskaya	Метро Строгино (запад. вестибюль)	37.40004981	55.8039924	А1067
392	Sokolnicheskaya	Таллинская ул.	37.39163894	55.80158638	А1067
393	Sokolnicheskaya	Строгинский бульв.	37.39362212	55.8045034	А1067
394	Sokolnicheskaya	Метро Филевский парк	37.48370869	55.73882046	А107
395	Sokolnicheskaya	Ул. Молостовых	37.83001594	55.74958724	А1073к
396	Sokolnicheskaya	Ул. Молостовых	37.82892338	55.7499653	А1073к
397	Sokolnicheskaya	Метро Новогиреево	37.8197574	55.75118674	А1073к
398	Sokolnicheskaya	Метро Новогиреево	37.81950747	55.75141845	А1073к
399	Sokolnicheskaya	Ул. Сталеваров, 22	37.8396268903	55.754284258	А1073к
400	Sokolnicheskaya	Школа	37.83982464	55.75736909	А1073к
401	Sokolnicheskaya	Ул. Сталеваров, 10	37.8401161901	55.7627653714	А1073к
402	Sokolnicheskaya	Ивановское	37.83998811	55.76628981	А1073к
403	Sokolnicheskaya	Электродепо Новогиреево	37.8351057234	55.7504968909	А1073к
404	Sokolnicheskaya	Ул. Сталеваров, 10	37.83979366	55.76224856	А1073к
405	Sokolnicheskaya	Школа	37.83952646	55.75716562	А1073к
406	Sokolnicheskaya	Электродепо Новогиреево	37.83400814	55.75012191	А1073к
407	Sokolnicheskaya	Ул. Сталеваров, 22	37.83931311	55.75374963	А1073к
408	Sokolnicheskaya	Богоявление	37.16599455	55.25178812	А1077
409	Sokolnicheskaya	Богоявление	37.16669883	55.25145172	А1077
410	Sokolnicheskaya	Сады	37.18052976	55.247036	А1077
411	Sokolnicheskaya	Сады	37.18188449	55.24645106	А1077
412	Sokolnicheskaya	Алексеевка	37.20899078	55.23772909	А1077
413	Sokolnicheskaya	Алексеевка	37.2105818	55.23697674	А1077
414	Sokolnicheskaya	Поворот на Чернецкое	37.2165252	55.23524128	А1077
415	Sokolnicheskaya	15-я Парковая ул.	37.81714041	55.79340307	А109к
416	Sokolnicheskaya	15-я Парковая ул.	37.81877179	55.79367591	А109к
417	Sokolnicheskaya	Рынок	37.46403237	55.69729996	А11
418	Sokolnicheskaya	Ул. Усиевича	37.53520626	55.80340818	А110
419	Sokolnicheskaya	Стар. Зыковский пр.	37.54297242	55.80028523	А110
420	Sokolnicheskaya	Ул. Пилота Нестерова	37.54898959	55.79712623	А110
421	Sokolnicheskaya	Красноармейская ул.	37.55239618	55.79520653	А110
422	Sokolnicheskaya	Красноармейская ул.	37.55171433	55.79576753	А110
423	Sokolnicheskaya	Ул. Пилота Нестерова	37.54738342	55.79819996	А110
424	Sokolnicheskaya	Стар. Зыковский пр.	37.54218954	55.80091226	А110
425	Sokolnicheskaya	Ул. Нижн. Масловка	37.56763481	55.79114254	А110
426	Sokolnicheskaya	Петровско-Разумовская ал., 8	37.56259494444141	55.792488289928315	А110
427	Sokolnicheskaya	Метро Петровский парк	37.55902208	55.79295924	А110
428	Sokolnicheskaya	Ул. Нов. Башиловка	37.56988588	55.78882216	А110
429	Sokolnicheskaya	Университетская пл.	37.5371609	55.70655661	А111
430	Sokolnicheskaya	Ул. Новаторов (к/ст)	37.52199049	55.65939896	А111
431	Sokolnicheskaya	Д/к МГУ	37.52952368	55.70177876	А111
432	Sokolnicheskaya	Ул. Николая Коперника	37.54990099	55.69792599	А111
433	Sokolnicheskaya	Просп. Вернадского	37.54587856	55.70142916	А111
434	Sokolnicheskaya	Ул. Николая Коперника	37.55147903	55.6982257	А111
435	Sokolnicheskaya	Университетский просп.	37.55608417	55.69557544	А111
436	Sokolnicheskaya	Улица Лебедева	37.53379288	55.70079673	А111
437	Sokolnicheskaya	Обсерватория	37.53993338	55.70361186	А111
438	Sokolnicheskaya	Улица Архитектора Власова, 20	37.54245105	55.6711604	А111
439	Sokolnicheskaya	Стадион	37.79348377	55.64237842	А112
440	Sokolnicheskaya	Ул. Капотня	37.79066599	55.6523055	А112
441	Sokolnicheskaya	1-й кв. Капотни	37.78929031	55.64225606	А112
442	Sokolnicheskaya	1-й кв. Капотни	37.78909031	55.64248918	А112
443	Sokolnicheskaya	Ул. Капотня	37.79154683	55.65253169	А112
444	Sokolnicheskaya	Люблинский суд	37.78458771114459	55.66485139449271	А1121
445	Sokolnicheskaya	12-й мкр. Марьинского Парка	37.78300384	55.66376809	А1121
446	Sokolnicheskaya	12-й мкр. Марьинского Парка	37.78132491	55.66290846	А1121
447	Sokolnicheskaya	Метро Университет	37.53427943	55.69181245	А113
448	Sokolnicheskaya	МФЦ Ломоносовского района	37.53837927	55.67637605	А113
449	Sokolnicheskaya	Ул. Гарибальди	37.5348021686	55.6780601102	А113
450	Sokolnicheskaya	Ул. Гарибальди	37.53400944	55.67745539	А113
451	Sokolnicheskaya	Ул. Кравченко, 2	37.52226085	55.67466316	А113
452	Sokolnicheskaya	Метро Профсоюзная (к/ст)	37.56462339	55.67757004	А113
453	Sokolnicheskaya	Метро Ломоносовский проспект	37.51785176	55.70760225	А113
454	Sokolnicheskaya	Ботанический сад МГУ	37.5235988	55.70999124	А113
455	Sokolnicheskaya	Загорьевский проезд	37.66431058	55.57942108	А1130
456	Sokolnicheskaya	Платф. Бирюлево - пасс.	37.66183743	55.58236804	А1130
457	Sokolnicheskaya	Лебедянская ул., 4	37.66229514	55.58650881	А1130
458	Sokolnicheskaya	Ягодная улица	37.67622265	55.58092289	А1130
459	Sokolnicheskaya	Загорьевский проезд, 15	37.68071318	55.57733048	А1130
460	Sokolnicheskaya	Загорьевский проезд, 15	37.68213674	55.57719533	А1130
461	Sokolnicheskaya	МФЦ Бирюлёво Восточное	37.67643534	55.57767993	А1130
462	Sokolnicheskaya	МФЦ Бирюлёво Восточное	37.67644018	55.5772337	А1130
463	Sokolnicheskaya	Загорьевская ул.	37.67671887	55.57931537	А1130
464	Sokolnicheskaya	Ягодная улица	37.67677786	55.58000005	А1130
465	Sokolnicheskaya	Пос. Восточный	37.85908967	55.81754104	А1133
466	Sokolnicheskaya	Роддом № 27	37.52868045	55.83113889	А114
467	Sokolnicheskaya	Коптевский рынок	37.52185322	55.83295193	А114
468	Sokolnicheskaya	Коптевский рынок	37.52114845	55.83208078	А114
469	Sokolnicheskaya	Роддом № 27	37.52758635	55.83028842	А114
470	Sokolnicheskaya	Метро Петровско-Разумовская	37.57571844	55.8372403	А114
471	Sokolnicheskaya	Метро Петровско-Разумовская	37.57585651	55.83716907	А114
472	Sokolnicheskaya	Торговый центр	37.5619061	55.86192215	А114
473	Sokolnicheskaya	3-й Нижнелихоборский пр.	37.56828721	55.84505615	А114
474	Sokolnicheskaya	К/т Комсомолец	37.57029254	55.84221842	А114
475	Sokolnicheskaya	Коптевская ул.	37.51809726	55.82930661	А114
476	Sokolnicheskaya	Коптевская ул.	37.51910841	55.83087861	А114
477	Sokolnicheskaya	Коровинское ш. (выс.)	37.51794623	55.883331	А114
478	Sokolnicheskaya	Базовская ул. (к/ст)	37.51755272	55.88449496	А114
479	Sokolnicheskaya	Диагностический центр	37.35143008	55.68369134	А1147
480	Sokolnicheskaya	Метро Тропарёво	37.47327981	55.64500626	А1147
481	Sokolnicheskaya	Ул. Шумилова	37.77973104	55.70651396	А115
482	Sokolnicheskaya	Муз. школа	37.77847192	55.71152578	А115
483	Sokolnicheskaya	Библиотека	37.78244223	55.70882639	А115
484	Sokolnicheskaya	Ул. Федора Полетаева	37.78840047	55.70807991	А115
485	Sokolnicheskaya	Ул. Федора Полетаева	37.7891691426	55.7081476171	А115
486	Sokolnicheskaya	Библиотека	37.78158843	55.70916291	А115
487	Sokolnicheskaya	Гос. Биологический музей	37.57236241	55.76564251	А116
488	Sokolnicheskaya	Ул. Климашкина	37.57262692	55.76794676	А116
489	Sokolnicheskaya	М. Грузинская ул.	37.5732357	55.77178262	А116
490	Sokolnicheskaya	М. Грузинская ул.	37.57282544	55.77119333	А116
491	Sokolnicheskaya	Ул. Климашкина	37.57237404	55.76835538	А116
492	Sokolnicheskaya	Гос. Биологический музей	37.5717994124	55.7640371683	А116
493	Sokolnicheskaya	Ул. Заморенова	37.57820407	55.75778617	А116
494	Sokolnicheskaya	Зоологический пер., 8	37.5746547128	55.7652447783	А116
495	Sokolnicheskaya	Грузинский пер., 6	37.5811177	55.77219178	А116
496	Sokolnicheskaya	Зоологическая ул.	37.57839818	55.76480894	А116
497	Sokolnicheskaya	Дом кино	37.5877148708	55.7724788637	А116
498	Sokolnicheskaya	Метро Баррикадная	37.57947321	55.76185672	А116
499	Sokolnicheskaya	Белорусский вокзал	37.58391068	55.77467404	А116
500	Sokolnicheskaya	Тишинская пл. (выс., пос.)	37.58545767	55.77033399	А116
501	Sokolnicheskaya	Б. Грузинская ул.	37.58352806	55.77057146	А116
502	Sokolnicheskaya	Багратионовский пр., 5	37.50893247	55.74473192	А116
503	Sokolnicheskaya	Багратионовский пр., 5	37.50795787	55.74460511	А116
504	Sokolnicheskaya	Метро Фили	37.51422602	55.74661731	А116
505	Sokolnicheskaya	Метро Фили	37.51370085	55.7462484	А116
506	Sokolnicheskaya	2-я Филевская ул.	37.490273178	55.7401812185	А116
507	Sokolnicheskaya	Багратионовский проезд	37.49911483	55.74163597	А116
508	Sokolnicheskaya	Багратионовский пр.	37.49837249	55.74042886	А116
509	Sokolnicheskaya	Кастанаевская ул.	37.48905607	55.73783049	А116
510	Sokolnicheskaya	2-я Филевская ул.	37.4929854	55.73888568	А116
511	Sokolnicheskaya	Б. Кондратьевский пер.	37.57971434	55.77388876	А116
512	Sokolnicheskaya	Электрический пер.	37.57811788	55.77356021	А116
513	Sokolnicheskaya	Электрический пер.	37.57711704	55.77301108	А116
514	Sokolnicheskaya	ЖК Бунинский	37.48784688	55.54038074	А117
515	Sokolnicheskaya	Ивановское кладб.	37.47305518	55.54067354	А117
516	Sokolnicheskaya	Ивановское кладб.	37.47373249	55.54063104	А117
517	Sokolnicheskaya	Пр. пр. № 7048	37.47946838	55.54097324	А117
518	Sokolnicheskaya	Пр. пр. № 7048	37.47978779	55.54045324	А117
519	Sokolnicheskaya	Бунино	37.45259169	55.53859704	А117
520	Sokolnicheskaya	Бунино	37.45243238	55.53845974	А117
521	Sokolnicheskaya	Чароитовая ул.	37.35306178	55.51306704	А117
522	Sokolnicheskaya	Южнобутовская ул.	37.5343672	55.53732598	А118
523	Sokolnicheskaya	4-й мкр. Южного Бутова	37.53637595	55.53481473	А118
524	Sokolnicheskaya	4-й мкр. Южного Бутова	37.53635441	55.53530195	А118
525	Sokolnicheskaya	Дорожная ул.	37.61298879	55.59399466	А118
526	Sokolnicheskaya	МФЦ Чертаново Южное	37.60768844	55.59481914	А118
527	Sokolnicheskaya	Бульв. Адм. Ушакова	37.54753308	55.54597222	А118
528	Sokolnicheskaya	Метро Ул. Скобелевская	37.55395143	55.54755356	А118
529	Sokolnicheskaya	Метро Ул. Скобелевская	37.55197301	55.5473942	А118
530	Sokolnicheskaya	Бульв. Адм. Ушакова	37.546951	55.54616179	А118
531	Sokolnicheskaya	Чечерский пр., 98	37.52147834	55.52910388	А118
532	Sokolnicheskaya	Бунинская ал.	37.51951239	55.52883993	А118
533	Sokolnicheskaya	Мкр. Чечера	37.53208582	55.53176065	А118
534	Sokolnicheskaya	Чечерский пр., 44	37.53405758	55.5326912	А118
535	Sokolnicheskaya	Мкр. Чечера	37.53001432	55.53143528	А118
536	Sokolnicheskaya	Чечерский пр., 72	37.52575052	55.53016534	А118
537	Sokolnicheskaya	Чечерский пр., 82	37.52367319	55.52988672	А118
538	Sokolnicheskaya	Чечерский пр., 72	37.52746893	55.53082048	А118
539	Sokolnicheskaya	Новобутовская ул.	37.58663658	55.55994594	А118
540	Sokolnicheskaya	МЦД Красный Строитель	37.61450531	55.589387	А118
541	Sokolnicheskaya	Дорожная ул., 32	37.61474529	55.59159669	А118
542	Sokolnicheskaya	Центр детского творчества Виктория	37.61070682	55.58898692	А118
543	Sokolnicheskaya	Ул. Газопровод, 11	37.60858808	55.58910809	А118
544	Sokolnicheskaya	Ул. Газопровод	37.60391884	55.59051568	А118
545	Sokolnicheskaya	Куликовская ул.	37.56401743	55.57149987	А118
546	Sokolnicheskaya	МФЦ Северное Бутово	37.5681815	55.57414547	А118
547	Sokolnicheskaya	Ул. Знаменские Садки, 1	37.57415973	55.57271302	А118
548	Sokolnicheskaya	Бедрино	37.93890584	55.69862015	А1182
549	Sokolnicheskaya	Ул. Лавриненко	37.94518841	55.70097096	А1182
550	Sokolnicheskaya	Ул. Лавриненко	37.94664734	55.7004703	А1182
551	Sokolnicheskaya	13-й кв. Люберецких полей	37.9512672	55.70266529	А1182
552	Sokolnicheskaya	13-й кв. Люберецких полей	37.95013359	55.70186936	А1182
553	Sokolnicheskaya	Ул. Кулакова (пос.)	37.39245578	55.79987498	А1189
554	Sokolnicheskaya	Универсам	37.395232072051265	55.79925265721521	А1189
555	Sokolnicheskaya	Школа им. Марины Цветаевой	37.40219911	55.79904876	А1189
556	Sokolnicheskaya	Метро Щукинская	37.46210502	55.80925358	А1189
557	Sokolnicheskaya	Ул. Дружбы	37.52420844	55.71379638	А119
558	Sokolnicheskaya	Ул. Дружбы	37.52225429	55.71373521	А119
559	Sokolnicheskaya	Институт военной истории	37.5186350403	55.7161638251	А119
560	Sokolnicheskaya	Институт военной истории	37.51840246	55.71593997	А119
561	Sokolnicheskaya	Мичуринский просп.	37.52701694	55.71225205	А119
562	Sokolnicheskaya	Менделеевская ул.	37.52810019	55.70481869	А119
563	Sokolnicheskaya	Мичуринский просп.	37.52699105	55.71107026	А119
564	Sokolnicheskaya	Д/к МГУ	37.52945795	55.70182686	А119
565	Sokolnicheskaya	Ул. Лебедева	37.52872685	55.6983737	А119
566	Sokolnicheskaya	Менделеевская ул.	37.52727298	55.70469314	А119
567	Sokolnicheskaya	Метро Академическая (южн.)	37.5747223722	55.6869552061	А119
568	Sokolnicheskaya	Метро Академическая (сев.)	37.5752793488	55.6874795765	А119
569	Sokolnicheskaya	Ул. Винокурова, 7	37.58700229	55.68852443	А119
570	Sokolnicheskaya	Новочеремушкинская ул.	37.58868739	55.69113005	А119
571	Sokolnicheskaya	Новочеремушкинская ул.	37.58935657	55.69076252	А119
572	Sokolnicheskaya	Поликлиника	37.59771843	55.67824153	А119
573	Sokolnicheskaya	Поликлиника	37.59762986	55.6778105	А119
574	Sokolnicheskaya	Долина реки Коршуниха	37.59704227	55.68051473	А119
575	Sokolnicheskaya	Долина реки Коршуниха	37.59649295	55.68054169	А119
576	Sokolnicheskaya	6-й Загородный пр.	37.59910395	55.68336654	А119
577	Sokolnicheskaya	Школа № 520	37.5981393	55.68447529	А119
578	Sokolnicheskaya	Школа № 520	37.59845029	55.68414227	А119
579	Sokolnicheskaya	Ул. Винокурова	37.59388275	55.68572496	А119
580	Sokolnicheskaya	Ул. Лебедева	37.5290483	55.69821151	А119
581	Sokolnicheskaya	Метро Университет	37.53536801	55.694178	А119
582	Sokolnicheskaya	Д/к МГУ	37.52912456	55.70224818	А119
583	Sokolnicheskaya	Детская п-ка	37.58956365	55.68741049	А119
584	Sokolnicheskaya	Ул. Винокурова	37.59294647	55.6862546	А119
585	Sokolnicheskaya	Детская п-ка	37.58981997	55.68714421	А119
586	Sokolnicheskaya	Ул. Винокурова, 7	37.58711738	55.68804961	А119
587	Sokolnicheskaya	Ул. Ивана Бабушкина	37.5691655	55.68957357	А119
588	Sokolnicheskaya	Ул. Ивана Бабушкина	37.56716608	55.68953482	А119
589	Sokolnicheskaya	Дарвиновский музей	37.56122995	55.69244769	А119
590	Sokolnicheskaya	Дарвиновский музей	37.56238071	55.69118216	А119
591	Sokolnicheskaya	Ул. Шверника, 10	37.58674933	55.69216082	А119
592	Sokolnicheskaya	Ул. Гримау, 1	37.582411	55.69259698	А119
593	Sokolnicheskaya	К/т Улан-Батор	37.57818529	55.68867703	А119
594	Sokolnicheskaya	К/т Улан-Батор	37.5797233724	55.6897824905	А119
595	Sokolnicheskaya	Ул. Гримау, 1	37.58300472	55.69281131	А119
596	Sokolnicheskaya	Ул. Шверника, 10	37.58818518	55.6915204	А119
597	Sokolnicheskaya	Ленинский просп., 68	37.54835888	55.6894759	А119
598	Sokolnicheskaya	Молодежная ул.	37.55170402	55.69140678	А119
599	Sokolnicheskaya	Молодежная ул.	37.5502253	55.69111125	А119
600	Sokolnicheskaya	Ленинский просп., 68	37.54724717	55.68942519	А119
601	Sokolnicheskaya	Университетский просп.	37.55694556	55.69388146	А119
602	Sokolnicheskaya	Бережковская наб., 8	37.56666475	55.73930454	А119
603	Sokolnicheskaya	Бережковская наб.,14	37.5635867597	55.7366782342	А119
604	Sokolnicheskaya	Патентное ведомство	37.55143894	55.73092838	А119
605	Sokolnicheskaya	ТЭЦ № 12	37.55526161	55.73264475	А119
606	Sokolnicheskaya	Метро Марьина Роща	37.61639918	55.79385144	А12
607	Sokolnicheskaya	Б. Кондратьевский пер.	37.58061178	55.77440084	А12
608	Sokolnicheskaya	Белорусский вокзал	37.58223268	55.77708064	А12
609	Sokolnicheskaya	1-й Стрелецкий пер.	37.6093476173	55.7983493791	А12
610	Sokolnicheskaya	Комбинат твёрдых сплавов	37.60294091	55.79816246	А12
611	Sokolnicheskaya	Ул. Двинцев	37.59827331	55.79678091	А12
612	Sokolnicheskaya	6-й пр. Марьиной Рощи	37.61455093	55.7984803	А12
613	Sokolnicheskaya	Ул. Сущевский Вал - Больница	37.59977296	55.79292075	А12
614	Sokolnicheskaya	Угловой пер.	37.58860038	55.78961555	А12
615	Sokolnicheskaya	Улица Воейкова	37.50815067	55.67156331	А120
616	Sokolnicheskaya	32 - 33-й кв. Юго-Запада	37.50815652	55.66905366	А120
617	Sokolnicheskaya	Ул. Михаила Певцова	37.5136523	55.67048322	А120
618	Sokolnicheskaya	Улица Лобачевского, 120	37.46834581	55.69380859	А120
619	Sokolnicheskaya	Метро Тушинская (пос.)	37.43560462	55.82764091	А120
620	Sokolnicheskaya	Бирюлевский дендропарк	37.67285855	55.59237971	А1200к
621	Sokolnicheskaya	Больница им. Буянова	37.65692723	55.61951795	А1200к
622	Sokolnicheskaya	Больница им. Буянова	37.65733956	55.62035958	А1200к
623	Sokolnicheskaya	Элеваторная ул.	37.67075733	55.60076005	А1200к
624	Sokolnicheskaya	Севанская ул.	37.65734485	55.62347369	А1200к
625	Sokolnicheskaya	Бакинская улица	37.6573073	55.62747551	А1200к
626	Sokolnicheskaya	Бакинская улица	37.65684951	55.62726285	А1200к
627	Sokolnicheskaya	Ул. Грина, 20	37.57846714	55.56479451	А1202к
628	Sokolnicheskaya	6-й мкр. Жулебина	37.85184433	55.67957764	А1204к
629	Sokolnicheskaya	Метро Котельники	37.85921117	55.67753895	А1205к
630	Sokolnicheskaya	1-я Вольская ул.	37.92870596	55.68572987	А1206к
631	Sokolnicheskaya	Д/к Заречье	37.92077679	55.68338031	А1206к
632	Sokolnicheskaya	Аптека	37.91524495	55.68317914	А1206к
633	Sokolnicheskaya	1-я Вольская ул., 17	37.92818694	55.68365993	А1206к
634	Sokolnicheskaya	Вешняки-Владычино	37.83079687	55.71977335	А1206к
635	Sokolnicheskaya	Пл. Амилкара Кабрала	37.82738008	55.72092079	А1206к
636	Sokolnicheskaya	Платф. Косино	37.8502297832	55.7063447153	А1206к
637	Sokolnicheskaya	Платф. Косино	37.8500178638	55.7053932339	А1206к
638	Sokolnicheskaya	Поселковая ул.	37.85406653	55.70374158	А1206к
639	Sokolnicheskaya	Лениногорская ул., 24	37.86094478	55.70065688	А1206к
640	Sokolnicheskaya	Поликлиника	37.84536153	55.71565202	А1206к
641	Sokolnicheskaya	Платф. Ухтомская	37.86664809	55.69960535	А1206к
642	Sokolnicheskaya	Ул. Михельсона	37.8625186	55.70179555	А1206к
643	Sokolnicheskaya	Поселковая ул.	37.85666738	55.70444389	А1206к
644	Sokolnicheskaya	Братиславская ул., 26	37.7642443	55.65447764	А1207к
645	Sokolnicheskaya	Братиславская ул., 28	37.76563538	55.65330396	А1207к
646	Sokolnicheskaya	Ул. Марьинский Парк	37.77903047	55.65989611	А1207к
647	Sokolnicheskaya	Ул. Марьинский Парк, 7	37.77784964	55.65679868	А1207к
648	Sokolnicheskaya	Братиславская ул., 31	37.76732308	55.65233132	А1207к
649	Sokolnicheskaya	Братиславская ул., 28	37.76574289	55.65366359	А1207к
650	Sokolnicheskaya	8-й мкр. Марьинского Парка	37.77696593	55.6530498	А1207к
651	Sokolnicheskaya	Ул. Марьинский Парк, 7	37.77821305	55.65735981	А1207к
652	Sokolnicheskaya	Ул. Героев Панфиловцев	37.41813851	55.857966	А1208к
653	Sokolnicheskaya	Метро Планерная	37.43401049	55.86078815	А1208к
654	Sokolnicheskaya	Ин-т Морфологии человека	37.57732119	55.66982155	А121
655	Sokolnicheskaya	Зюзинская ул.	37.57287477	55.66749377	А121
656	Sokolnicheskaya	Аптека	37.56972201	55.66697228	А121
657	Sokolnicheskaya	Аптека	37.57053829	55.66681158	А121
658	Sokolnicheskaya	Зюзинская ул.	37.57408607	55.66761774	А121
659	Sokolnicheskaya	Ин-т Морфологии человека	37.5769961	55.6692195	А121
660	Sokolnicheskaya	Поликлиника	37.56569005	55.66711042	А121
661	Sokolnicheskaya	Поликлиника	37.56686353	55.66708455	А121
662	Sokolnicheskaya	Метро Профсоюзная	37.56392802	55.67727078	А121
663	Sokolnicheskaya	Метро Молодежная	37.41420988	55.73979026	А121
664	Sokolnicheskaya	Рублевское ш.	37.4088294668	55.7493251208	А121
665	Sokolnicheskaya	Метро Кузьминки	37.76741496	55.70607444	А1211к
666	Sokolnicheskaya	Жигулевская ул.	37.76349259	55.70955024	А1211к
667	Sokolnicheskaya	Жигулевская ул.	37.762404819	55.7111610454	А1211к
668	Sokolnicheskaya	Зеленодольская ул.	37.76786904	55.71013117	А1211к
669	Sokolnicheskaya	Окская ул., 18	37.7566448316	55.7123354074	А1211к
670	Sokolnicheskaya	М-н Оптика	37.7527443168	55.7113734117	А1211к
671	Sokolnicheskaya	Окская ул., 4	37.74994436	55.71036519	А1211к
672	Sokolnicheskaya	М-н Оптика	37.7545012047	55.7115511044	А1211к
673	Sokolnicheskaya	Окская ул., 18	37.7577104573	55.7124026682	А1211к
674	Sokolnicheskaya	Окская ул., 4	37.7481598	55.71015576	А1211к
675	Sokolnicheskaya	Белая Дача	37.83914935	55.65893341	А1211к
676	Sokolnicheskaya	11-й км.	37.83206845	55.6842803	А1211к
677	Sokolnicheskaya	11-й км.	37.83067718	55.68413548	А1211к
678	Sokolnicheskaya	Метро Измайловская	37.783225	55.78816202	А1215к
679	Sokolnicheskaya	19-й таксомоторный парк	37.8032084	55.69804611	А1216к
680	Sokolnicheskaya	Метро Кузьминки	37.76341554	55.70555657	А1216к
681	Sokolnicheskaya	Метро Кузьминки	37.76786073	55.70528204	А1216к
682	Sokolnicheskaya	Ул. Горбунова, 9	37.38873139	55.72255785	А1218к
683	Sokolnicheskaya	Ул. Горбунова	37.40472575	55.72648715	А1218к
684	Sokolnicheskaya	Старослободская ул.	37.67031186	55.79150066	А122
685	Sokolnicheskaya	Ул. Шумкина	37.66379462	55.7917381	А122
686	Sokolnicheskaya	Ул. Шумкина	37.66417507	55.79150147	А122
687	Sokolnicheskaya	Старослободская ул.	37.66902754	55.79168843	А122
688	Sokolnicheskaya	Поперечный просек	37.66144657	55.79200841	А122
689	Sokolnicheskaya	Метро Сокольники	37.677797286744955	55.7920580656116	А122
690	Sokolnicheskaya	Метро Сокольники	37.6773592751688	55.79178132771948	А122
691	Sokolnicheskaya	3-я Рыбинская ул.	37.65907064	55.79217849	А122
692	Sokolnicheskaya	Поперечный просек	37.66063244	55.79237994	А122
693	Sokolnicheskaya	Дворец спорта Сокольники (к/ст)	37.67345324	55.79193717	А122
694	Sokolnicheskaya	Москва - 2 - тов.	37.67022664	55.78780647	А122
695	Sokolnicheskaya	Ул. Шумкина, 26	37.67455039	55.78723151	А122
696	Sokolnicheskaya	Ф-ка Буревестник	37.66054062	55.79073797	А122
697	Sokolnicheskaya	Ул. Шумкина, 26	37.67282824	55.7869912	А122
698	Sokolnicheskaya	Москва - 2 - тов.	37.66983643	55.78822453	А122
699	Sokolnicheskaya	Ул. Лобачика	37.66455016	55.78899652	А122
700	Sokolnicheskaya	Ул. Лобачика	37.66594158	55.78935659	А122
701	Sokolnicheskaya	Ф-ка Буревестник	37.66165986	55.78993974	А122
702	Sokolnicheskaya	Леснорядская ул.	37.6710142	55.78219939	А122
703	Sokolnicheskaya	Маленковская ул.	37.67574847	55.78555024	А122
704	Sokolnicheskaya	Метро Красносельская	37.66689278	55.78001484	А122
705	Sokolnicheskaya	Метро Комсомольская	37.65901295	55.77659878	А122
706	Sokolnicheskaya	Краснопрудная ул.	37.66896911	55.7806512	А122
707	Sokolnicheskaya	Леснорядская ул.	37.67203621	55.78229457	А122
708	Sokolnicheskaya	Метро Комсомольская	37.65733149	55.77536176	А122
709	Sokolnicheskaya	Метро Красносельская	37.66459734	55.77856544	А122
710	Sokolnicheskaya	Верхняя Красносельская ул.	37.66574339	55.77990769	А122
711	Sokolnicheskaya	Муз. школа	37.6610321	55.7846912	А122
712	Sokolnicheskaya	2-й Красносельский пер.	37.66309253	55.78294198	А122
713	Sokolnicheskaya	Стоматологическая п-ка	37.66424677	55.78145977	А122
714	Sokolnicheskaya	Ф-ка им. Бабаева	37.65910668	55.78596223	А122
715	Sokolnicheskaya	Муз. школа	37.66159438	55.78393481	А122
716	Sokolnicheskaya	Метро Красносельская	37.66539789	55.77983308	А122
717	Sokolnicheskaya	Ф-ка им. Бабаева	37.65937101	55.78604466	А122
718	Sokolnicheskaya	2-й Красносельский пер.	37.66320566	55.78228639	А122
719	Sokolnicheskaya	Ул. Гаврикова	37.66496709	55.78459224	А122
720	Sokolnicheskaya	Ул. Гаврикова	37.66442628	55.78436204	А122
721	Sokolnicheskaya	Ф-ка Большевичка - Комсомольская пл.	37.65281759	55.77301874	А122
722	Sokolnicheskaya	Ф-ка Большевичка - Комсомольская пл.	37.65237648	55.77310994	А122
723	Sokolnicheskaya	Метро Красные ворота	37.65090969	55.76955363	А122
724	Sokolnicheskaya	Пл. Земляной Вал	37.65584004	55.76472295	А122
725	Sokolnicheskaya	Ин-т Глазных болезней	37.65316934	55.76650897	А122
726	Sokolnicheskaya	Ильинские Ворота	37.63290904	55.75735511	А122
727	Sokolnicheskaya	Армянский пер.	37.64049029	55.75843886	А122
728	Sokolnicheskaya	Покровские Ворота	37.64696519	55.75934977	А122
729	Sokolnicheskaya	Лялин пер.	37.65197511	55.76184261	А122
730	Sokolnicheskaya	Пл. Цезаря Куникова	37.65478791	55.76328541	А122
731	Sokolnicheskaya	Метро Лубянка	37.6315085259	55.7606052825	А122
732	Sokolnicheskaya	Мясницкая ул.	37.64377154	55.76815464	А122
733	Sokolnicheskaya	Метро Чистые пруды	37.6366843	55.76479104	А122
734	Sokolnicheskaya	Птичий рынок	37.82787329	55.65685451	А1221к
735	Sokolnicheskaya	Садовод	37.83335504	55.65710441	А1221к
736	Sokolnicheskaya	Садовод	37.83484013	55.65690127	А1221к
737	Sokolnicheskaya	Птичий рынок	37.8264789727	55.6571725242	А1221к
738	Sokolnicheskaya	З-д Хроматограф	37.8186157	55.65730643	А1221к
739	Sokolnicheskaya	З-д Хроматограф	37.8183284509	55.6570418956	А1221к
740	Sokolnicheskaya	Салтыковская ул., 4	37.86680184	55.72087485	А1225к
741	Sokolnicheskaya	Салтыковская ул., 4	37.86595291	55.72119907	А1225к
742	Sokolnicheskaya	Ветлужская ул.	37.86034377	55.72240386	А1225к
743	Sokolnicheskaya	Ветлужская ул.	37.86009615	55.72295071	А1225к
744	Sokolnicheskaya	Оранжерейная ул.	37.87435233	55.71806999	А1225к
745	Sokolnicheskaya	Оранжерейная ул.	37.87345524	55.71914171	А1225к
746	Sokolnicheskaya	Парк у Святого озера	37.87735209	55.71467585	А1225к
747	Sokolnicheskaya	МФЦ Некрасовка	37.93131581	55.70761371	А1225к
748	Sokolnicheskaya	Рождественская ул., 29	37.92879189	55.70703133	А1225к
749	Sokolnicheskaya	Суздальская ул.	37.84717778	55.73197692	А1225к
750	Sokolnicheskaya	Суздальская ул.	37.84746536	55.73244059	А1225к
751	Sokolnicheskaya	Торговый центр на Суздальской	37.84621806	55.73911864	А1225к
752	Sokolnicheskaya	Суздальская ул., 18	37.84722076	55.74102512	А1225к
753	Sokolnicheskaya	Суздальская ул., 20	37.85092343	55.74346155	А1225к
754	Sokolnicheskaya	Суздальская ул., 24	37.85715195	55.74350813	А1225к
755	Sokolnicheskaya	Метро Новокосино	37.8610787172	55.7438458047	А1225к
756	Sokolnicheskaya	Торговый центр на Суздальской	37.84622488	55.73835012	А1225к
757	Sokolnicheskaya	Суздальская ул., 18	37.84786695	55.74140396	А1225к
758	Sokolnicheskaya	Суздальская ул., 20	37.85207118	55.74320625	А1225к
759	Sokolnicheskaya	Суздальская ул., 24	37.85773343	55.74328441	А1225к
760	Sokolnicheskaya	Метро Новокосино	37.8609108105	55.743631912	А1225к
761	Sokolnicheskaya	Ул. Николая Старостина, 5	37.8505202903	55.7310017089	А1225к
762	Sokolnicheskaya	Ул. Николая Старостина, 5	37.84893257	55.73127214	А1225к
763	Sokolnicheskaya	Ул. Николая Старостина	37.85310038	55.73112051	А1225к
764	Sokolnicheskaya	3-й мкр. Новокосина	37.86007302	55.73059174	А1225к
765	Sokolnicheskaya	4-й мкр. Кожухова	37.89920965	55.71560811	А1225к
766	Sokolnicheskaya	Святоозерская ул.	37.89855111	55.71293603	А1225к
767	Sokolnicheskaya	11-й км.	37.83088114	55.68465812	А1226к
768	Sokolnicheskaya	9-й км.	37.83208336	55.70346678	А1226к
769	Sokolnicheskaya	9-й км.	37.83328725	55.70354911	А1226к
770	Sokolnicheskaya	7-й км.	37.83980149	55.72181194	А1226к
771	Sokolnicheskaya	7-й км.	37.83897278	55.72199094	А1226к
772	Sokolnicheskaya	Городецкая ул., 12	37.86772471	55.73947993	А1227к
773	Sokolnicheskaya	Городецкая ул.	37.86667957	55.74115327	А1227к
774	Sokolnicheskaya	Метро Некрасовка	37.92885276	55.70274408	А1227к
775	Sokolnicheskaya	ул. Татьяны Макаровой	37.88607173	55.71205841	А1227к
776	Sokolnicheskaya	Метро Лухмановская (запад. вестибюль)	37.89690486	55.70991974	А1227к
777	Sokolnicheskaya	Метро Новокосино	37.86643155	55.74458814	А1227к
778	Sokolnicheskaya	3-й мкр. Новокосина	37.86161043	55.73127336	А1227к
779	Sokolnicheskaya	Поликлиника № 66	37.86407784	55.73510857	А1227к
780	Sokolnicheskaya	Салтыковская ул., 7	37.86222335	55.7333465	А1227к
781	Sokolnicheskaya	Лицей	37.86530368	55.73637323	А1227к
782	Sokolnicheskaya	Лицей	37.86677105	55.73685436	А1227к
783	Sokolnicheskaya	Поликлиника № 66	37.86330904	55.73482798	А1227к
784	Sokolnicheskaya	Салтыковская ул., 7	37.86300932	55.73395261	А1227к
785	Sokolnicheskaya	Салтыковская ул., 41	37.87984186	55.74309397	А1227к
786	Sokolnicheskaya	Салтыковская ул., 33	37.87533541	55.73989147	А1227к
787	Sokolnicheskaya	МФЦ Новокосино	37.87015491	55.73822997	А1227к
788	Sokolnicheskaya	Святоозерская ул., 2	37.88113658	55.71368682	А1227к
789	Sokolnicheskaya	43-й кв. Марьинского Парка	37.75975414	55.66753043	А1228к
790	Sokolnicheskaya	43-й кв. Марьинского Парка	37.75920083	55.66761915	А1228к
791	Sokolnicheskaya	Краснодонская ул.	37.7530442313	55.6665032009	А1228к
792	Sokolnicheskaya	Ул. Верхн. Поля, 37	37.76250705	55.66850831	А1228к
793	Sokolnicheskaya	Братеевская ул., 21	37.75082167	55.63303725	А1228к
794	Sokolnicheskaya	Новороссийская ул.	37.76107891	55.67123739	А1228к
795	Sokolnicheskaya	Торговый центр	37.76039504	55.62274196	А1228к
796	Sokolnicheskaya	Братеевская ул., 21	37.75028794	55.63282715	А1228к
797	Sokolnicheskaya	Новороссийская ул.	37.76119587	55.67150222	А1228к
798	Sokolnicheskaya	Спортивная школа	37.75517822	55.65419631	А1228к
799	Sokolnicheskaya	Мячковский бульв., 8	37.75243953	55.65649288	А1228к
800	Sokolnicheskaya	Мячковский бульв., 8	37.75160707	55.65682469	А1228к
801	Sokolnicheskaya	Братиславская ул., 8	37.7544604746	55.6636653054	А1228к
802	Sokolnicheskaya	Краснодонская ул.	37.7522851448	55.6658300602	А1228к
803	Sokolnicheskaya	3-й мкр. Марьинского Парка	37.75445322	55.6532938	А1228к
804	Sokolnicheskaya	Метро Марьино (южн.)	37.74438068	55.6494355	А1228к
805	Sokolnicheskaya	Поликлиника	37.7456931715	55.650897856	А1228к
806	Sokolnicheskaya	Метро Люблино	37.76277504	55.67744626	А1228к
807	Sokolnicheskaya	3-й мкр. Марьинского Парка	37.75403229	55.65286737	А1228к
808	Sokolnicheskaya	Пр. пр. № 83	37.93004631	55.68670204	А1229к
809	Sokolnicheskaya	Берёзовый лес	37.93882824	55.69254281	А1229к
810	Sokolnicheskaya	Берёзовый лес	37.93852858	55.69195444	А1229к
811	Sokolnicheskaya	11-й кв. Люберецких полей	37.94073793	55.70092435	А1229к
812	Sokolnicheskaya	Бедрино	37.94097939	55.69928693	А1229к
813	Sokolnicheskaya	Центр медицинской реабилитации	37.93938804	55.6948082	А1229к
814	Sokolnicheskaya	Центр медицинской реабилитации	37.93959642	55.69484771	А1229к
815	Sokolnicheskaya	Метро Петровско-Разумовская (пос.)	37.57569245	55.83705449	А123
816	Sokolnicheskaya	Платф. Петровско-Разумовская	37.56821557	55.8406967	А123
817	Sokolnicheskaya	Платф. Петровско-Разумовская	37.56904674	55.83983429	А123
818	Sokolnicheskaya	Улица Линии Октябрьской Железной Дороги, 10	37.56315646	55.84366117	А123
819	Sokolnicheskaya	Улица Линии Октябрьской Железной Дороги, 10	37.56454225	55.84311322	А123
820	Sokolnicheskaya	3-й Лихачевский пер.	37.52188032	55.84887376	А123
821	Sokolnicheskaya	База механизации	37.52713334	55.85108758	А123
822	Sokolnicheskaya	Лихоборская наб. - Хим-тех. з-д	37.5305915	55.8527395	А123
823	Sokolnicheskaya	Автомоторная ул.	37.53651595	55.84925437	А123
824	Sokolnicheskaya	НАМИ	37.54100334	55.8464752	А123
825	Sokolnicheskaya	Автомоторная ул.	37.53602663	55.84995017	А123
826	Sokolnicheskaya	Лихоборская наб. - Хим-тех. з-д	37.53094503	55.85291772	А123
827	Sokolnicheskaya	База механизации	37.5270668	55.85127231	А123
828	Sokolnicheskaya	НАМИ	37.54056126	55.84640342	А123
829	Sokolnicheskaya	Нарвская ул. - Университет Гражданской Авиации	37.50222806	55.84379443	А123
830	Sokolnicheskaya	Детский сад	37.50334068	55.84091104	А123
831	Sokolnicheskaya	Диспансер	37.50566731	55.83733611	А123
832	Sokolnicheskaya	Детский сад	37.50345789	55.84200552	А123
833	Sokolnicheskaya	Метро Петровско-Разумовская (к/ст, выс.)	37.57405866	55.83667518	А123
834	Sokolnicheskaya	Кадетский корпус полиции	37.54363761	55.84249732	А123
835	Sokolnicheskaya	4-й Новомихалковский пр. - Поликлиника № 159	37.54506468	55.84075235	А123
836	Sokolnicheskaya	Кадетский корпус полиции	37.54341964	55.84320609	А123
837	Sokolnicheskaya	4-й Новомихалковский пр. - Поликлиника № 159	37.54492783	55.84051185	А123
838	Sokolnicheskaya	Диспансер	37.50611432	55.83722166	А123
839	Sokolnicheskaya	Электромеханический колледж	37.51312248	55.83772474	А123
840	Sokolnicheskaya	Ф-ка им. Петра Алексеева	37.51644356	55.8395005	А123
841	Sokolnicheskaya	МЦК Коптево	37.51935117	55.84121915	А123
842	Sokolnicheskaya	МЦК Коптево	37.51813253	55.84121009	А123
843	Sokolnicheskaya	Ф-ка им. Петра Алексеева	37.51580279	55.83910127	А123
844	Sokolnicheskaya	Электромеханический колледж	37.51182132	55.83778569	А123
845	Sokolnicheskaya	Онежская ул. - Колледж	37.52181196	55.84540799	А123
846	Sokolnicheskaya	3-й Лихачевский пер.	37.52091766	55.84831504	А123
847	Sokolnicheskaya	Онежская ул. - Колледж	37.52157813	55.84409988	А123
848	Sokolnicheskaya	Ст. аэрации	37.93666225	55.68695965	А1230к
849	Sokolnicheskaya	Бетонный з-д	37.93885878	55.69063612	А1230к
850	Sokolnicheskaya	Бетонный з-д	37.93823462	55.68994185	А1230к
851	Sokolnicheskaya	Ст. аэрации	37.93586324	55.68710787	А1230к
852	Sokolnicheskaya	2-я Вольская ул.	37.91511725	55.6843541	А1230к
853	Sokolnicheskaya	Некрасовка	37.9234856173	55.6864889675	А1230к
854	Sokolnicheskaya	Новомарьинская ул.	37.7729293	55.66269068	А1230к
855	Sokolnicheskaya	Новомарьинская ул.	37.77410497	55.66171712	А1230к
856	Sokolnicheskaya	Метро Люблино	37.76364586	55.67648786	А1230к
857	Sokolnicheskaya	Ул. Недорубова	37.93719743	55.7048964	А1232к
858	Sokolnicheskaya	Зенинское ш.	37.94179108	55.70439006	А1232к
859	Sokolnicheskaya	Бабушкинский парк	37.682398226	55.8648126107	А124
860	Sokolnicheskaya	Ст. Лосиноостровская	37.68195311	55.86386381	А124
861	Sokolnicheskaya	Киноконцертный зал Орион	37.67816482	55.86686897	А124
862	Sokolnicheskaya	МФЦ Южное Медведково	37.63844189	55.87159181	А124
863	Sokolnicheskaya	К/т Полярный	37.6374933	55.87469588	А124
864	Sokolnicheskaya	Ул. Молодцова	37.63666446	55.87749631	А124
865	Sokolnicheskaya	Ул. Молодцова	37.63621215	55.87737411	А124
866	Sokolnicheskaya	К/т Полярный	37.6373336	55.8737581	А124
867	Sokolnicheskaya	МФЦ Южное Медведково	37.63783552	55.87184217	А124
868	Sokolnicheskaya	Станция Лосиноостровская	37.68305103	55.86420442	А124
869	Sokolnicheskaya	Метро Бабушкинская	37.66317314	55.8697457	А124
870	Sokolnicheskaya	Метро Бабушкинская	37.66312277	55.87003565	А124
871	Sokolnicheskaya	Ул. Бестужевых - Театр МЕЛ	37.59783306	55.86628136	А124
872	Sokolnicheskaya	Северный бульв., 1	37.60026151	55.86574419	А124
873	Sokolnicheskaya	Метро Отрадное	37.60422526	55.86444104	А124
874	Sokolnicheskaya	Микрорайон 4 Д Отрадного	37.60211365	55.86019783	А124
875	Sokolnicheskaya	Метро Отрадное	37.60469797	55.86284464	А124
876	Sokolnicheskaya	Метро Отрадное	37.60464469	55.86409874	А124
877	Sokolnicheskaya	Ясный пр.	37.6206921	55.87537279	А124
878	Sokolnicheskaya	Ясный пр., 11	37.62428396	55.87403505	А124
879	Sokolnicheskaya	Продмаг	37.6295558	55.87290544	А124
880	Sokolnicheskaya	Пр. Дежнева, 32	37.63159479	55.87155666	А124
881	Sokolnicheskaya	Продмаг	37.62839788	55.8734437	А124
882	Sokolnicheskaya	Ясный пр., 11	37.62310071	55.87446606	А124
883	Sokolnicheskaya	Ул. Молодцова, 17	37.63172548	55.87917077	А124
884	Sokolnicheskaya	З-д мостовых конструкций	37.62694428	55.87967031	А124
885	Sokolnicheskaya	Ясный пр., 32	37.61916132	55.87808579	А124
886	Sokolnicheskaya	Ясный пр.	37.61948217955237	55.87734112501118	А124
887	Sokolnicheskaya	Ясный пр., 32	37.61945945	55.87876946	А124
888	Sokolnicheskaya	З-д мостовых конструкций	37.62664992	55.87913736	А124
889	Sokolnicheskaya	Ул. Молодцова, 17	37.63272136	55.8784898	А124
890	Sokolnicheskaya	Дом творчества	37.61265601	55.86930895	А124
891	Sokolnicheskaya	Школа	37.60889896	55.87136318	А124
892	Sokolnicheskaya	Ул. Бестужевых, 13	37.60326425	55.87011061	А124
893	Sokolnicheskaya	Ул. Бестужевых	37.5963304397	55.867996083	А124
894	Sokolnicheskaya	Метро Отрадное	37.60396228	55.86268604	А124
895	Sokolnicheskaya	Мкр. 4 Д Отрадного (к/ст)	37.60078828	55.85991764	А124
896	Sokolnicheskaya	Бабушкинский парк	37.68078132	55.86581484	А124
897	Sokolnicheskaya	Варшавское ш., 261	37.579879265	55.5286061286	А1246к
898	Sokolnicheskaya	Варшавское ш., 261	37.58062395	55.52877919	А1246к
899	Sokolnicheskaya	Железнодорожная ул.	37.57118188	55.50049494	А1248к
900	Sokolnicheskaya	Захарьинские дворики	37.57221409	55.50401074	А1248к
901	Sokolnicheskaya	Захарьинские дворики	37.57357484	55.50438658	А1248к
902	Sokolnicheskaya	Ул. Молостовых (пос.)	37.82722438	55.75327706	А125
903	Sokolnicheskaya	Федеративный просп., 33	37.82441929	55.75349177	А125
904	Sokolnicheskaya	Ул. Молостовых (выс.)	37.82728261	55.75309952	А125
905	Sokolnicheskaya	Федеративный просп., 33	37.82383792	55.75375002	А125
906	Sokolnicheskaya	Свободный просп.	37.81720901	55.75473652	А125
907	Sokolnicheskaya	Больница имени Мухина	37.81315107	55.75529819	А125
908	Sokolnicheskaya	Мартеновская ул.	37.80629023	55.75624733	А125
909	Sokolnicheskaya	Мартеновская ул.	37.80725337	55.75587419	А125
910	Sokolnicheskaya	Больница имени Мухина	37.81504181	55.75475185	А125
911	Sokolnicheskaya	Просп. Буденного	37.74300859	55.75673255	А125
912	Sokolnicheskaya	Ул. Буракова	37.73800856	55.75570348	А125
913	Sokolnicheskaya	Д/к Компрессор	37.72391649	55.75297595	А125
914	Sokolnicheskaya	Д/к Компрессор	37.72472136	55.75284769	А125
915	Sokolnicheskaya	Трамвайно-ремонтный з-д	37.67846936	55.75217107	А125
916	Sokolnicheskaya	Музей им. Андрея Рублева	37.6707795287	55.747302554	А125
917	Sokolnicheskaya	Д/к Серп и Молот	37.67586956	55.74867802	А125
918	Sokolnicheskaya	Библиотека им. Грина	37.68202087	55.75533016	А125
919	Sokolnicheskaya	Красноказарменная пл.	37.68539076	55.75778961	А125
920	Sokolnicheskaya	Самокатная ул.	37.68310384	55.75611204	А125
921	Sokolnicheskaya	Библиотека им. Грина	37.68150409	55.75533822	А125
922	Sokolnicheskaya	Трамвайно-ремонтный з-д	37.67850245	55.7527063	А125
923	Sokolnicheskaya	Д/к Серп и Молот	37.67572408	55.74899484	А125
924	Sokolnicheskaya	Музей им. Андрея Рублева	37.67040262	55.74739865	А125
925	Sokolnicheskaya	Красноказарменная пл.	37.68518531	55.7579441	А125
926	Sokolnicheskaya	Самокатная ул.	37.68289107	55.75630958	А125
927	Sokolnicheskaya	5-я Парковая ул.	37.78891084	55.80980805	А1251к
928	Sokolnicheskaya	Алтайская ул., 26	37.82401026	55.82043728	А1251к
929	Sokolnicheskaya	Поликлиника № 191	37.81643436	55.82028076	А1251к
930	Sokolnicheskaya	Гольяновский пруд	37.8098834	55.82011929	А1251к
931	Sokolnicheskaya	Алтайская ул., 6	37.80433114	55.81997621	А1251к
932	Sokolnicheskaya	Уральская ул.	37.79920494	55.81988781	А1251к
933	Sokolnicheskaya	Алтайская ул., 6	37.80576282	55.81986124	А1251к
934	Sokolnicheskaya	Гольяновский пруд	37.8109781	55.8199505	А1251к
935	Sokolnicheskaya	Поликлиника № 191	37.81939081	55.82011646	А1251к
936	Sokolnicheskaya	Алтайская ул., 26	37.8245273	55.82027674	А1251к
937	Sokolnicheskaya	Уральская ул.	37.80144601	55.81972628	А1251к
938	Sokolnicheskaya	5-я Парковая ул.	37.7871263	55.81003305	А1251к
939	Sokolnicheskaya	Сиреневый сад	37.76433166	55.80528901	А1251к
940	Sokolnicheskaya	Восточный вокзал	37.74964193	55.80206241	А1251к
941	Sokolnicheskaya	Восточный вокзал	37.75179502	55.80215421	А1251к
942	Sokolnicheskaya	Монтажная ул.	37.77483927912678	55.808539325239266	А1251к
943	Sokolnicheskaya	Калошино	37.77023226	55.80691981	А1251к
944	Sokolnicheskaya	3-я Парковая ул.	37.78398802	55.80996747	А1251к
945	Sokolnicheskaya	3-я Парковая ул.	37.78384118	55.80964784	А1251к
946	Sokolnicheskaya	37-й квартал Измайлова	37.75854367	55.80378443	А1251к
947	Sokolnicheskaya	Метро Черкизовская	37.7447977	55.80127436	А1251к
948	Sokolnicheskaya	37-й квартал Измайлова	37.75783557	55.804173	А1251к
949	Sokolnicheskaya	Метро Черкизовская	37.74527226	55.80097685	А1251к
950	Sokolnicheskaya	Сиреневый сад	37.76185647	55.80529262	А1251к
951	Sokolnicheskaya	Калошино	37.76940256	55.80705579	А1251к
952	Sokolnicheskaya	Метро Щелковская	37.79622909	55.81041084	А1251к
953	Sokolnicheskaya	Гарнизон Остафьево	37.53366219	55.50832971	А1255к
954	Sokolnicheskaya	Гарнизон Остафьево	37.53596743	55.50817347	А1255к
955	Sokolnicheskaya	Никольское	37.54376319	55.50934084	А1255к
956	Sokolnicheskaya	Никольское	37.54424809	55.50937744	А1255к
957	Sokolnicheskaya	МЦД Щербинка	37.55986026	55.50878532	А1255к
958	Sokolnicheskaya	Ф-ка им. 1 Мая	37.50321021	55.48991705	А1255к
959	Sokolnicheskaya	Аэропорт Остафьево	37.5177512	55.50256446	А1255к
960	Sokolnicheskaya	Аэропорт Остафьево	37.51984408	55.50352479	А1255к
961	Sokolnicheskaya	Музей-усадьба Остафьево	37.5035402	55.49423697	А1255к
962	Sokolnicheskaya	Остафьево	37.50948928	55.49810164	А1255к
963	Sokolnicheskaya	Остафьево	37.51011679	55.49831169	А1255к
964	Sokolnicheskaya	Музей-усадьба Остафьево	37.50452256	55.49311866	А1255к
965	Sokolnicheskaya	Остафьевская ул. (пос.)	37.51747686	55.52697194	А1255к
966	Sokolnicheskaya	Поворот на Щиброво	37.53579687	55.51751954	А1255к
967	Sokolnicheskaya	Поворот на Щиброво	37.53614326	55.5168942	А1255к
968	Sokolnicheskaya	МЦД Щербинка	37.56144479	55.51060764	А1255к
969	Sokolnicheskaya	Остафьевская ул. (выс.)	37.51758041	55.52711069	А1255к
970	Sokolnicheskaya	Южнобутовская ул.	37.51701313	55.53317697	А1255к
971	Sokolnicheskaya	Бунинская ал.	37.51982556	55.53008755	А1255к
972	Sokolnicheskaya	Бунинская ал.	37.51951064	55.53004016	А1255к
973	Sokolnicheskaya	Метро Бунинская аллея	37.51399285	55.53757874	А1255к
974	Sokolnicheskaya	Метро Бунинская аллея	37.51441271	55.53880144	А1255к
975	Sokolnicheskaya	5-й мкр. Южного Бутова	37.5153766	55.53540766	А1255к
976	Sokolnicheskaya	Южнобутовская ул.	37.5165599	55.5343277	А1255к
977	Sokolnicheskaya	Сады	37.51953364	55.45014296	А1256к
978	Sokolnicheskaya	Сады	37.52052801	55.44982782	А1256к
979	Sokolnicheskaya	Комбинат твёрдых сплавов	37.60324365	55.79588193	А126
980	Sokolnicheskaya	1-й Стрелецкий пер.	37.6088051	55.79609721	А126
981	Sokolnicheskaya	Стрелецкая ул.	37.59980657	55.79563824	А126
982	Sokolnicheskaya	Октябрьская ул.	37.61322506	55.79623015	А126
983	Sokolnicheskaya	Ул. Сущевский Вал - Больница	37.60041436	55.79312083	А126
984	Sokolnicheskaya	Ул. Яблочкова, 45	37.57713545	55.82953477	А126
985	Sokolnicheskaya	Метро Марьина Роща - Театр Сатирикон	37.61622948	55.79690474	А126
986	Sokolnicheskaya	Метро Фонвизинская (северный вестибюль)	37.58596371	55.82417128	А126
987	Sokolnicheskaya	Ул. Милашенкова, 13	37.58340965	55.82584597	А126
988	Sokolnicheskaya	Управа района Бутырский	37.58131026	55.82682973	А126
989	Sokolnicheskaya	Ул. Милашенкова, 13	37.58344227	55.82545734	А126
990	Sokolnicheskaya	Метро Фонвизинская (северный вестибюль)	37.58614187	55.82380054	А126
991	Sokolnicheskaya	Управа района Бутырский	37.58077289	55.82764571	А126
992	Sokolnicheskaya	Метро Фонвизинская	37.58867695	55.82218226	А126
993	Sokolnicheskaya	Метро Фонвизинская	37.58882720259748	55.82238053626731	А126
994	Sokolnicheskaya	Новосущевская ул.	37.60337594	55.79289095	А126
995	Sokolnicheskaya	Метро Марьина Роща	37.61437242	55.79343299	А126
996	Sokolnicheskaya	Ул. Образцова	37.60736661	55.79313758	А126
997	Sokolnicheskaya	Метро Новогиреево	37.81735159	55.75278265	А1263к
998	Sokolnicheskaya	Ул. Петра Алексеева	37.42827191	55.7201546	А1265к
999	Sokolnicheskaya	Метро Парк Победы	37.51904937	55.73620401	А1265к
1000	Sokolnicheskaya	Парк Победы	37.49393446	55.73191288	А1265к
1001	Sokolnicheskaya	Поклонная Гора	37.50634387	55.73418788	А1265к
1002	Sokolnicheskaya	Поклонная гора	37.50490141	55.73435339	А1265к
1003	Sokolnicheskaya	Парк Победы	37.49505901	55.7325472	А1265к
1004	Sokolnicheskaya	Метро Котельники	37.85581108	55.67683815	А1266к
1005	Sokolnicheskaya	Молодогвардейская ул.	37.41210979	55.73264299	А127
1006	Sokolnicheskaya	Рублево	37.3554643622	55.7861215054	А127
1007	Sokolnicheskaya	Метро Рассказовка	37.33664602	55.63413776	А128
1008	Sokolnicheskaya	Мякинино (выс., пос.)	37.37425242	55.80393368	А129
1009	Sokolnicheskaya	Черепково	37.3832414	55.76383631	А129
1010	Sokolnicheskaya	Черепково	37.38276314	55.76352583	А129
1011	Sokolnicheskaya	Рублево	37.35612604	55.78701533	А129
1012	Sokolnicheskaya	Рублево	37.3554273975	55.7874334788	А129
1013	Sokolnicheskaya	Ул. Василия Ботылева	37.35685689	55.79132532	А129
1014	Sokolnicheskaya	Ул. Василия Ботылева	37.3564179	55.79119374	А129
1015	Sokolnicheskaya	Рублево	37.35500145	55.78681768	А129
1016	Sokolnicheskaya	Советская ул.	37.3584677	55.78196425	А129
1017	Sokolnicheskaya	Советская ул.	37.3588917	55.78187984	А129
1018	Sokolnicheskaya	МКАД	37.37375034	55.76804834	А129
1019	Sokolnicheskaya	ЦКБ	37.3953001959	55.7580900257	А129
1020	Sokolnicheskaya	ЦКБ	37.39591586	55.75710953	А129
1021	Sokolnicheskaya	МКАД	37.37439864	55.76745745	А129
1022	Sokolnicheskaya	Осенний бульв.	37.40918034	55.75337822	А129
1023	Sokolnicheskaya	Дом быта	37.4080859	55.76181782	А129
1024	Sokolnicheskaya	Метро Крылатское	37.40849443	55.75865591	А129
1025	Sokolnicheskaya	Метро Крылатское	37.40881403	55.75606111	А129
1026	Sokolnicheskaya	Новочеремушкинская ул.	37.56987636	55.67533665	А130
1027	Sokolnicheskaya	К/т Тбилиси	37.5686638	55.67253799	А130
1028	Sokolnicheskaya	23-й кв. Новых Черемушек	37.56529301	55.66938355	А130
1029	Sokolnicheskaya	23-й кв. Новых Черемушек	37.56637159	55.6692933	А130
1030	Sokolnicheskaya	К/т Тбилиси	37.56942236	55.67214322	А130
1031	Sokolnicheskaya	23-й кв. Новых Черемушек	37.56505791	55.66915551	А130
1032	Sokolnicheskaya	Минская ул.	37.48026633	55.74252574	А130
1033	Sokolnicheskaya	Ул. Барклая	37.49428666	55.7479808	А130
1034	Sokolnicheskaya	Парк Фили	37.49352776	55.75103338	А130
1035	Sokolnicheskaya	Парк Фили	37.49289068	55.75138776	А130
1036	Sokolnicheskaya	К/т Слава	37.77033936	55.76295117	А131
1037	Sokolnicheskaya	Метро Партизанская	37.74993978	55.78847645	А131
1038	Sokolnicheskaya	Главная ал.	37.7626867	55.77697737	А131
1039	Sokolnicheskaya	Детский городок	37.75767325	55.77684944	А131
1040	Sokolnicheskaya	Измайловский парк	37.74798803	55.77659044	А131
1041	Sokolnicheskaya	Измайловский парк	37.74899299	55.77649564	А131
1042	Sokolnicheskaya	Детский городок	37.75729234	55.77671297	А131
1043	Sokolnicheskaya	Главная ал.	37.76394322	55.77685953	А131
1044	Sokolnicheskaya	Мост Окружной ж.д.	37.74623876	55.78225064	А131
1045	Sokolnicheskaya	1-я ул. Измайловского Зверинца	37.74685683	55.78048173	А131
1046	Sokolnicheskaya	1-я ул. Измайловского Зверинца	37.7465815	55.7796856	А131
1047	Sokolnicheskaya	Зеленый просп.	37.77961005	55.75062621	А131
1048	Sokolnicheskaya	Дворец творчества молодежи	37.77698679	55.75495024	А131
1049	Sokolnicheskaya	Ул. Металлургов	37.77569057	55.75692547	А131
1050	Sokolnicheskaya	Спортклуб Луч	37.77376065	55.7601812	А131
1051	Sokolnicheskaya	К/т Слава	37.7724367	55.76150016	А131
1052	Sokolnicheskaya	Спортклуб Луч	37.77369696	55.75948546	А131
1053	Sokolnicheskaya	Ул. Металлургов	37.7753731	55.75674346	А131
1054	Sokolnicheskaya	Дворец творчества молодежи	37.77692313	55.7542742	А131
1055	Sokolnicheskaya	Ул. 8-го Марта	37.54915017	55.80622791	А132
1056	Sokolnicheskaya	Петровско-Разумовская ал.	37.55999214	55.79554528	А132
1057	Sokolnicheskaya	МЦД Гражданская	37.55331127	55.80258456	А132
1058	Sokolnicheskaya	МЦД Гражданская	37.55486329	55.80159661	А132
1059	Sokolnicheskaya	Стар. Петровско-Разумовский пр.	37.55723381	55.79905056	А132
1060	Sokolnicheskaya	Стар. Петровско-Разумовский пр.	37.55715159	55.79955144	А132
1061	Sokolnicheskaya	Ул. 8-го Марта	37.54899969	55.80610486	А132
1062	Sokolnicheskaya	Свободный просп.	37.81422392	55.74484875	А133
1063	Sokolnicheskaya	Метро Рязанский просп.	37.79300757	55.71713847	А133
1064	Sokolnicheskaya	Метро Рязанский просп.	37.79536765	55.71706695	А133
1065	Sokolnicheskaya	Ул. Паперника, 17	37.79008096	55.72099377	А133
1066	Sokolnicheskaya	Театр Чихачева	37.78508655	55.71925996	А133
1067	Sokolnicheskaya	Ул. Паперника, 17	37.79103982	55.72088453	А133
1068	Sokolnicheskaya	Театр Чихачева	37.78602897	55.71826379	А133
1069	Sokolnicheskaya	Ул. Мусоргского	37.62019649	55.85792178	А134
1070	Sokolnicheskaya	Олонецкая ул., 17	37.62011035	55.85424039	А134
1071	Sokolnicheskaya	Школа	37.61782611	55.85192541	А134
1072	Sokolnicheskaya	Олонецкая ул., 17	37.61898903	55.85344135	А134
1073	Sokolnicheskaya	Школа	37.61696599	55.85139663	А134
1074	Sokolnicheskaya	Березовая ал.	37.6234426	55.84789337	А134
1075	Sokolnicheskaya	Березовая ал., 17	37.61968001	55.84904958	А134
1076	Sokolnicheskaya	Берёзовая аллея, 17	37.6205944	55.8485972	А134
1077	Sokolnicheskaya	Олонецкая ул.	37.61753549	55.84955974	А134
1078	Sokolnicheskaya	Берёзовая аллея	37.62950366	55.84631731	А134
1079	Sokolnicheskaya	Лазоревый пр.	37.63394689	55.8461219	А134
1080	Sokolnicheskaya	Лазоревый пр.	37.63374158	55.84630785	А134
1081	Sokolnicheskaya	Рублевское ш., 99	37.4247012	55.74246176	А135
1082	Sokolnicheskaya	Рублевское ш., 91	37.42809514	55.74082435	А135
1083	Sokolnicheskaya	Рублевское ш., 83 - Центр Лечения Слуха	37.43187806	55.7390016	А135
1084	Sokolnicheskaya	Истринская ул.	37.4322726762	55.7369150824	А135
1085	Sokolnicheskaya	Истринская ул., 1	37.4301852332	55.7353404866	А135
1086	Sokolnicheskaya	Истринская ул.	37.4325778316	55.7368850499	А135
1087	Sokolnicheskaya	Рублевское ш., 83 - Центр Лечения Слуха	37.43152939	55.73938212	А135
1088	Sokolnicheskaya	Рублевское ш., 91	37.42757878	55.74130722	А135
1089	Sokolnicheskaya	Рублевское ш., 99	37.42442933	55.74284166	А135
1090	Sokolnicheskaya	Ул. Акад. Павлова (выс.)	37.39877739	55.74295269	А135
1091	Sokolnicheskaya	Метро Пионерская	37.46618954	55.73640621	А135
1092	Sokolnicheskaya	Ул. Полосухина	37.46144627	55.7352019	А135
1093	Sokolnicheskaya	М. Филевская ул.	37.4556065595	55.7338479961	А135
1094	Sokolnicheskaya	Метро Кунцевская	37.44799189	55.73134864	А135
1095	Sokolnicheskaya	Ф-ка Зарница	37.4358903	55.73236604	А135
1096	Sokolnicheskaya	Молдавская ул.	37.43971955	55.7302561	А135
1097	Sokolnicheskaya	Молдавская ул.	37.44060425	55.73048781	А135
1098	Sokolnicheskaya	Ельнинская ул.	37.43423396	55.73378516	А135
1099	Sokolnicheskaya	Метро Кунцевская	37.4447613	55.731238	А135
1100	Sokolnicheskaya	Ф-ка Зарница	37.4361369	55.73286897	А135
1101	Sokolnicheskaya	Истринская ул., 1	37.42992538	55.73477516	А135
1102	Sokolnicheskaya	Школа	37.4049243	55.74000333	А135
1103	Sokolnicheskaya	Партизанская ул., 33	37.40897387	55.73805188	А135
1104	Sokolnicheskaya	Партизанская ул., 33	37.408244486	55.7386154027	А135
1105	Sokolnicheskaya	Школа	37.40414698	55.74055721	А135
1106	Sokolnicheskaya	Ул. Акад. Павлова	37.4000664525	55.7423159943	А135
1107	Sokolnicheskaya	Ул. Марш. Сергеева	37.41199036	55.73832891	А135
1108	Sokolnicheskaya	Ул. Марш. Сергеева	37.41398915	55.7392575	А135
1109	Sokolnicheskaya	Метро Молодежная	37.41555975	55.74068643	А135
1110	Sokolnicheskaya	Метро Кунцевская	37.44715883	55.73000447	А135
1111	Sokolnicheskaya	МЦД Кунцевская	37.44838713	55.72576109	А135
1112	Sokolnicheskaya	Метро Пионерская	37.4674899076	55.7357059644	А135
1113	Sokolnicheskaya	Поликлиника	37.46387936	55.73261388	А135
1114	Sokolnicheskaya	Кастанаевская ул., 57	37.4573807313	55.7315795009	А135
1115	Sokolnicheskaya	Метро ВДНХ	37.6414149	55.82308257	А136
1116	Sokolnicheskaya	Новый театр	37.71699406394657	55.87469055556917	А136
1117	Sokolnicheskaya	Детская п-ка	37.71344178	55.87160555	А136
1118	Sokolnicheskaya	ВДНХ (главный вход)	37.63722218	55.82407814	А136
1119	Sokolnicheskaya	Школа № 750	37.69810949	55.86330905	А136
1120	Sokolnicheskaya	Метро ВДНХ	37.64283418	55.82390944	А136
1121	Sokolnicheskaya	Малыгинский пр.	37.71038103	55.86918594	А136
1122	Sokolnicheskaya	Федоскинская ул.	37.70452725	55.86618046	А136
1123	Sokolnicheskaya	Пристань	37.4086833839	55.7932142331	А137
1124	Sokolnicheskaya	Одинцовская ул.	37.40388544	55.79041779	А137
1125	Sokolnicheskaya	Троице-Лыково (выс., пос.)	37.40308747	55.7884728	А137
1126	Sokolnicheskaya	Одинцовская ул.	37.40429325	55.79069968	А137
1127	Sokolnicheskaya	Пристань	37.4090146837	55.7934647836	А137
1128	Sokolnicheskaya	Онежская ул. - Колледж	37.52242738	55.84500189	А139
1129	Sokolnicheskaya	Завод Красная звезда	37.52649055	55.84508841	А139
1130	Sokolnicheskaya	Ветлечебница	37.52848409	55.84513077	А139
1131	Sokolnicheskaya	МЗТО (Московский Завод Торгового Оборудования)	37.534235	55.84528513	А139
1132	Sokolnicheskaya	МЗТО (Московский Завод Торгового Оборудования)	37.53393722	55.84537457	А139
1133	Sokolnicheskaya	Ветлечебница	37.52913007	55.84525318	А139
1134	Sokolnicheskaya	Завод Красная звезда	37.52606068	55.84518499	А139
1135	Sokolnicheskaya	НАМИ	37.54061311	55.84585876	А139
1136	Sokolnicheskaya	Фабрика Спринт	37.53891171778426	55.84556745407498	А139
1137	Sokolnicheskaya	Фабрика Спринт	37.538307546077206	55.84551149283004	А139
1138	Sokolnicheskaya	НАМИ	37.54080178	55.84572805	А139
1139	Sokolnicheskaya	Пр. Черепановых, 64	37.54581597	55.84528814	А139
1140	Sokolnicheskaya	Пр. Черепановых, 64	37.54625098	55.84555714	А139
1141	Sokolnicheskaya	МЦК Лихоборы	37.55275158	55.84703324	А139
1142	Sokolnicheskaya	МЦК Лихоборы	37.55271999	55.84720274	А139
1143	Sokolnicheskaya	Кинотеатр Минск	37.4033899	55.71660058	А139
1144	Sokolnicheskaya	Ул. Дмитриевского, 7	37.8858129	55.70946686	А14
1145	Sokolnicheskaya	Салтыковская ул., 8	37.85999065	55.72774858	А14
1146	Sokolnicheskaya	Салтыковская ул., 8	37.85894069	55.72650345	А14
1147	Sokolnicheskaya	1-й Лучевой просек	37.65760169	55.79867258	А140
1148	Sokolnicheskaya	2-й Лучевой просек	37.65911855	55.80181129	А140
1149	Sokolnicheskaya	3-й Лучевой просек	37.66358308	55.80464213	А140
1150	Sokolnicheskaya	4-й Лучевой просек	37.66760708	55.8063827	А140
1151	Sokolnicheskaya	5-й Лучевой просек	37.67410004	55.80721592	А140
1152	Sokolnicheskaya	5-й Лучевой просек	37.67515182	55.807493	А140
1153	Sokolnicheskaya	4-й Лучевой просек	37.66886873	55.80692118	А140
1154	Sokolnicheskaya	3-й Лучевой просек	37.66335259	55.80471937	А140
1155	Sokolnicheskaya	2-й Лучевой просек	37.65936046	55.80222485	А140
1156	Sokolnicheskaya	1-й Лучевой просек	37.65707608	55.79773232	А140
1157	Sokolnicheskaya	6-й Лучевой просек (выс.)	37.68166507	55.80686696	А140
1158	Sokolnicheskaya	Поперечный просек	37.65918163	55.79299256	А140
1159	Sokolnicheskaya	Окружной пр., 35	37.74518948	55.76652931	А141
1160	Sokolnicheskaya	Окружной пр., 35	37.74567627	55.76738859	А141
1161	Sokolnicheskaya	Ст. Соколиная Гора	37.74513503	55.76971213	А141
1162	Sokolnicheskaya	МЦК Соколиная Гора	37.74450544	55.77076081	А141
1163	Sokolnicheskaya	Ул. Дмитрия Ульянова, 44	37.59237588	55.68109532	А142
1164	Sokolnicheskaya	Ул. Дмитрия Ульянова	37.58783058	55.68317989	А142
1165	Sokolnicheskaya	Ул. Дмитрия Ульянова	37.58804465	55.68252033	А142
1166	Sokolnicheskaya	Ул. Дмитрия Ульянова, 44	37.59284878	55.68074268	А142
1167	Sokolnicheskaya	Новочеремушкинская ул.	37.58323103	55.68398721	А142
1168	Sokolnicheskaya	Метро Академическая (южн.)	37.57505669	55.68683405	А142
1169	Sokolnicheskaya	Проспект Андропова	37.66622423	55.70296696	А142
1170	Sokolnicheskaya	Ул. Лобанова	37.66224849	55.70313395	А142
1171	Sokolnicheskaya	2-й Кожуховский пр.	37.6595316581	55.703280398	А142
1172	Sokolnicheskaya	Метро Кожуховская (выс.)	37.68670905	55.70594835	А142
1173	Sokolnicheskaya	Велозаводский рынок	37.66441808	55.71075601	А142
1174	Sokolnicheskaya	Автозаводская ул.	37.66162291	55.70932507	А142
1175	Sokolnicheskaya	Метро Автозаводская	37.65876335	55.70788947	А142
1176	Sokolnicheskaya	Метро Кожуховская (к/ст)	37.68793056	55.70606544	А142
1177	Sokolnicheskaya	Метро Нагорная	37.61140715	55.6730845	А142
1178	Sokolnicheskaya	8-й троллейбусный парк	37.6188863792	55.6723602906	А142
1179	Sokolnicheskaya	Криворожская ул. - Учебный комбинат Мосгортранс	37.62173173	55.66715888	А142
1180	Sokolnicheskaya	Криворожская ул. - Учебный комбинат Мосгортранс	37.62143976	55.6667374	А142
1181	Sokolnicheskaya	8-й троллейбусный парк	37.61996263	55.67314908	А142
1182	Sokolnicheskaya	Метро Варшавская	37.61989389	55.6535409	А142
1183	Sokolnicheskaya	Ферганская ул.	37.8109360207	55.7089001949	А143
1184	Sokolnicheskaya	Сормовская ул.	37.814107	55.71181618	А143
1185	Sokolnicheskaya	Ул. Юных Ленинцев	37.7935237	55.69769209	А143
1186	Sokolnicheskaya	МФЦ Текстильщики	37.7478503352	55.7118516278	А143
1187	Sokolnicheskaya	Волжский бульв., 9	37.74555946	55.71552925	А143
1188	Sokolnicheskaya	19-й таксомоторный парк	37.80410551	55.69582594	А143
1189	Sokolnicheskaya	МФЦ Текстильщики	37.74792102	55.71226777	А143
1190	Sokolnicheskaya	Волжский бульв., 9	37.74556246	55.71603557	А143
1191	Sokolnicheskaya	Метро Юго-Восточная	37.81677456	55.70498014	А143
1192	Sokolnicheskaya	Поликлиника	37.80873582	55.69965038	А143
1193	Sokolnicheskaya	Школа	37.81262688	55.70167365	А143
1194	Sokolnicheskaya	Рязанский просп.	37.82926602	55.70776478	А143
1195	Sokolnicheskaya	Роддом № 8	37.82647719	55.70467025	А143
1196	Sokolnicheskaya	Ташкентский пер., 3	37.82127629	55.70591362	А143
1197	Sokolnicheskaya	Метро Тропарёво	37.47240279	55.64510576	А144
1198	Sokolnicheskaya	Метро Китай-город	37.63442472	55.75399884	А144
1199	Sokolnicheskaya	Ул. Марии Ульяновой	37.5311606	55.67795863	А144К
1200	Sokolnicheskaya	Университетский просп.	37.55579141	55.69429086	А144К
1201	Sokolnicheskaya	Поликлиника	37.80976496	55.69983258	А144к
1202	Sokolnicheskaya	Рязанский просп.	37.81917993	55.71034042	А144к
1203	Sokolnicheskaya	Ташкентский пер.	37.8185386	55.70826365	А144к
1204	Sokolnicheskaya	Метро Юго-Восточная	37.81785805	55.70595839	А144к
1205	Sokolnicheskaya	Ул. Марии Ульяновой	37.52947253	55.67757962	А144К
1206	Sokolnicheskaya	Ул. Кравченко	37.52460545	55.67408757	А144К
1207	Sokolnicheskaya	Университетский просп.	37.55765459	55.69477619	А144К
1208	Sokolnicheskaya	Универмаг Москва	37.56225851	55.69735359	А144К
1209	Sokolnicheskaya	Ломоносовский просп.	37.54470283	55.68724197	А144К
1210	Sokolnicheskaya	Ломоносовский просп.	37.54419606	55.68751335	А144К
1211	Sokolnicheskaya	Ул. Кравченко	37.52417048	55.67430403	А144К
1212	Sokolnicheskaya	Ул. Кравченко (к/ст)	37.52194129	55.67436	А144К
1213	Sokolnicheskaya	Универмаг Москва	37.56134317	55.69745359	А144К
1214	Sokolnicheskaya	Пл. Гагарина	37.58364942	55.70905831	А144К
1215	Sokolnicheskaya	Храм	37.53784669	55.53450677	А146
1216	Sokolnicheskaya	Управление Соцзащиты	37.5420678	55.5368089	А146
1217	Sokolnicheskaya	Управление Соцзащиты	37.54110182	55.53662799	А146
1218	Sokolnicheskaya	Чечерский пр., 10	37.54470034	55.54142397	А146
1219	Sokolnicheskaya	Чечерский пр., 10	37.54480745	55.54082299	А146
1220	Sokolnicheskaya	Храм	37.53773258	55.53480657	А146
1221	Sokolnicheskaya	Шипиловская ул., 5	37.69793937	55.61742488	А148
1222	Sokolnicheskaya	Шипиловская ул.	37.70345524	55.61791153	А148
1223	Sokolnicheskaya	Шипиловская ул., 5	37.69947115	55.61732989	А148
1224	Sokolnicheskaya	Ясеневая улица, 17	37.72611072	55.60228007	А148
1225	Sokolnicheskaya	Домодедовская ул., 46	37.71565548	55.60095126	А148
1226	Sokolnicheskaya	Детская п-ка	37.71350797	55.60478283	А148
1227	Sokolnicheskaya	Домодедовская ул., 17	37.70993462	55.60843561	А148
1228	Sokolnicheskaya	Орехово-3	37.71985614	55.60103449	А148
1229	Sokolnicheskaya	Домодедовская ул.	37.70924103	55.6090765	А148
1230	Sokolnicheskaya	Детская п-ка	37.71351596	55.60411595	А148
1231	Sokolnicheskaya	Домодедовская ул., 46	37.71547811	55.60058674	А148
1232	Sokolnicheskaya	Домодедовская ул., 42	37.71455952	55.60224648	А148
1233	Sokolnicheskaya	Орехово-3	37.71963122	55.60050716	А148
1234	Sokolnicheskaya	Каширское ш., 84	37.70909401	55.62410299	А148
1235	Sokolnicheskaya	Школа № 548	37.70181661	55.6228036	А148
1236	Sokolnicheskaya	Ул. Марш. Захарова	37.69843763	55.62128606	А148
1237	Sokolnicheskaya	Шипиловский пр.	37.69625282	55.61825081	А148
1238	Sokolnicheskaya	Шипиловский пр.	37.69673742	55.61878235	А148
1239	Sokolnicheskaya	Ул. Марш. Захарова	37.69911773	55.62143448	А148
1240	Sokolnicheskaya	Школа № 548	37.70270605	55.62283568	А148
1241	Sokolnicheskaya	Каширское ш., 84	37.70840868	55.62376957	А148
1242	Sokolnicheskaya	Шипиловская ул.	37.70530867	55.61691871	А148
1243	Sokolnicheskaya	Детская библиотека	37.70674318	55.61402772	А148
1244	Sokolnicheskaya	Поликлиника № 166	37.70799842	55.61227579	А148
1245	Sokolnicheskaya	Домодедовская ул.	37.70909802	55.61006779	А148
1246	Sokolnicheskaya	Поликлиника № 166	37.70772333	55.6119667	А148
1247	Sokolnicheskaya	Детская библиотека	37.70692145	55.61448622	А148
1248	Sokolnicheskaya	МЦД Москворечье	37.6864417	55.63972366	А148
1249	Sokolnicheskaya	Дмитровское ш., 157	37.5411994	55.89842742	А149
1250	Sokolnicheskaya	МЦД Дегунино	37.57203028	55.86510724	А149
1251	Sokolnicheskaya	МЦД Дегунино	37.57197099	55.86522394	А149
1252	Sokolnicheskaya	Краснопролетарская ул.	37.60842303	55.77448927	А15
1253	Sokolnicheskaya	2-й Щемиловский пер.	37.60749928	55.77635344	А15
1254	Sokolnicheskaya	Метро Новослободская	37.60582521	55.77898057	А15
1255	Sokolnicheskaya	Селезневская ул.	37.60738951	55.780751	А15
1256	Sokolnicheskaya	Метро Новослободская	37.60507947	55.77995384	А15
1257	Sokolnicheskaya	2-й Щемиловский пер.	37.60717368	55.77629164	А15
1258	Sokolnicheskaya	Новодевичий монастырь	37.56050633	55.72660839	А15
1259	Sokolnicheskaya	Краснопролетарская ул.	37.608479097474934	55.77391160730648	А15
1260	Sokolnicheskaya	Селезневская ул.	37.60987479	55.78081129	А15
1261	Sokolnicheskaya	Метро Достоевская	37.6129936	55.78135952	А15
1262	Sokolnicheskaya	Каретный Ряд	37.60912778	55.77264464	А15
1263	Sokolnicheskaya	Сад Эрмитаж	37.61119189	55.77048154	А15
1264	Sokolnicheskaya	Петровские ворота	37.61312137	55.76885285	А15
1265	Sokolnicheskaya	Каретный Ряд	37.61005835	55.77221548	А15
1266	Sokolnicheskaya	Шереметьевская ул.	37.61533679	55.80626901	А15
1267	Sokolnicheskaya	Поликлиника	37.61546203	55.80322417	А15
1268	Sokolnicheskaya	6-й пр. Марьиной Рощи	37.61613885	55.79880074	А15
1269	Sokolnicheskaya	Поликлиника	37.61596152	55.80410911	А15
1270	Sokolnicheskaya	Шереметьевская ул.	37.61581042	55.80619273	А15
1271	Sokolnicheskaya	Метро Марьина Роща - Театр Сатирикон	37.6158583	55.79686803	А15
1272	Sokolnicheskaya	6-й пр. Марьиной Рощи	37.61574733	55.79783016	А15
1273	Sokolnicheskaya	Метро Марьина Роща - Театр Сатирикон	37.61622297	55.79705217	А15
1274	Sokolnicheskaya	Лазаревский пер.	37.6161629709	55.7919319835	А15
1275	Sokolnicheskaya	Ул. Советской Армии	37.6167063	55.78941108	А15
1276	Sokolnicheskaya	Лазаревский пер.	37.6165487	55.79162271	А15
1277	Sokolnicheskaya	Метро Марьина Роща	37.61640108	55.79389958	А15
1278	Sokolnicheskaya	Калибровская ул.	37.61818258	55.81069344	А15
1279	Sokolnicheskaya	Калибровская ул.	37.618780760596266	55.81094442582114	А15
1280	Sokolnicheskaya	Ул. Еланского	37.57592418	55.73378666	А15
1281	Sokolnicheskaya	Олсуфьевский пер.	37.57938604	55.7352908	А15
1282	Sokolnicheskaya	Ул. Льва Толстого	37.58193026	55.73644632	А15
1283	Sokolnicheskaya	Метро Кропоткинская	37.60126198	55.74434624	А15
1284	Sokolnicheskaya	Дом Ученых	37.59565609	55.74258878	А15
1285	Sokolnicheskaya	Зубовская пл.	37.58426798	55.73785536	А15
1286	Sokolnicheskaya	Ул. Льва Толстого	37.58144805	55.73658992	А15
1287	Sokolnicheskaya	Олсуфьевский пер.	37.57739339	55.73476846	А15
1288	Sokolnicheskaya	Ул. Еланского	37.57496568	55.73363334	А15
1289	Sokolnicheskaya	Дом Ученых	37.5950654640802	55.74212580924178	А15
1290	Sokolnicheskaya	Пречистенка	37.58725228	55.73912754	А15
1291	Sokolnicheskaya	Пречистенка	37.58817265	55.73930404	А15
1292	Sokolnicheskaya	Академия художеств	37.5911836	55.74067101	А15
1293	Sokolnicheskaya	Академия художеств	37.59009547	55.74010187	А15
1294	Sokolnicheskaya	Зубовская площадь	37.58377079	55.73732194	А15
1295	Sokolnicheskaya	Метро ВДНХ	37.64182678	55.82282024	А15
1296	Sokolnicheskaya	2-я Новоостанкинская ул.	37.61829629	55.81449523	А15
1297	Sokolnicheskaya	Экскурсионный корпус телебашни	37.6175586	55.81747325	А15
1298	Sokolnicheskaya	Метро ВДНХ	37.63855749	55.81936094	А15
1299	Sokolnicheskaya	Экскурсионный корпус телебашни	37.61738366	55.81684894	А15
1300	Sokolnicheskaya	2-я Новоостанкинская улица	37.61817974	55.81377029	А15
1301	Sokolnicheskaya	Ул. Акад. Королева	37.61655979	55.8208519	А15
1302	Sokolnicheskaya	Метро Чеховская	37.60862818	55.76578344	А15
1303	Sokolnicheskaya	Метро Кропоткинская	37.60152219	55.74538794	А15
1304	Sokolnicheskaya	Сивцев Вражек	37.60026299	55.74754344	А15
1305	Sokolnicheskaya	Арбатские Ворота	37.60094229	55.75046164	А15
1306	Sokolnicheskaya	Никитский бульв.	37.6001032816	55.7558778282	А15
1307	Sokolnicheskaya	Арбатские Ворота	37.59990398	55.75049954	А15
1308	Sokolnicheskaya	Сивцев Вражек	37.599244073613654	55.74721298384434	А15
1309	Sokolnicheskaya	Тверской бульв.	37.60213319	55.76233934	А15
1310	Sokolnicheskaya	Никитские ворота - ТАСС	37.59824908	55.75832244	А15
1311	Sokolnicheskaya	Тверская ул.	37.6039432366	55.7640029169	А15
1312	Sokolnicheskaya	Страстной бульв.	37.61278749	55.76762484	А15
1313	Sokolnicheskaya	Метро Кропоткинская	37.60111101283476	55.7447565593231	А15
1314	Sokolnicheskaya	Пушкинская пл.	37.60654904	55.76538912	А15
1315	Sokolnicheskaya	Страстной бульв.	37.61133268	55.76806244	А15
1316	Sokolnicheskaya	Метро Достоевская	37.61586163	55.78081605	А15
1317	Sokolnicheskaya	Центральный Музей Вооруженных сил	37.61589363	55.78512317	А15
1318	Sokolnicheskaya	Ул. Советской Армии	37.61647399	55.78797931	А15
1319	Sokolnicheskaya	Центральный Театр Российской Армии	37.61565505	55.78261737	А15
1320	Sokolnicheskaya	Центральный Музей Вооруженных сил	37.61643634	55.78525553	А15
1321	Sokolnicheskaya	Центральный Театр Российской Армии	37.61508985	55.78284378	А15
1322	Sokolnicheskaya	Никитские ворота - ТАСС	37.59987548	55.75861054	А15
1323	Sokolnicheskaya	Тверской бульв.	37.60308842	55.76184457	А15
1324	Sokolnicheskaya	Тверская ул.	37.6054466	55.76425095	А15
1325	Sokolnicheskaya	Мясокомбинат	37.63343802	55.62927807	А150
1326	Sokolnicheskaya	Платф. Чертаново (выс., пос.)	37.6284318495	55.6331863943	А150
1327	Sokolnicheskaya	Тарный проезд	37.63487602	55.63424036	А150
1328	Sokolnicheskaya	Деловая ул., 15	37.63977204	55.63216943	А150
1329	Sokolnicheskaya	Метро Молодежная	37.41606537	55.74069333	А150
1330	Sokolnicheskaya	Рублевское ш.	37.4096343366	55.7496397013	А150
1331	Sokolnicheskaya	1-й Котляковский переулок, 13	37.64201302	55.64262459	А150
1332	Sokolnicheskaya	1-й Котляковский пер.	37.64152479	55.64032474	А150
1333	Sokolnicheskaya	Шипиловский ЗАГС	37.69336933	55.61738455	А151
1334	Sokolnicheskaya	Дольская ул.	37.68614863	55.61994077	А151
1335	Sokolnicheskaya	Новоцарицынское ш.	37.68248667	55.62140723	А151
1336	Sokolnicheskaya	МЦД Царицыно	37.67310177	55.61987083	А151
1337	Sokolnicheskaya	Театр юного зрителя (областной)	37.67426491	55.61600958	А151
1338	Sokolnicheskaya	Центр реабилитации	37.67679318	55.60759053	А151
1339	Sokolnicheskaya	Центр реабилитации	37.676235	55.60806347	А151
1340	Sokolnicheskaya	МЦД Царицыно	37.67379499	55.62011126	А151
1341	Sokolnicheskaya	Дольская ул.	37.68660804	55.6194484	А151
1342	Sokolnicheskaya	Театр юного зрителя (областной)	37.67355144	55.61736784	А151
1343	Sokolnicheskaya	Новоцарицынское ш.	37.68296227	55.62094921	А151
1344	Sokolnicheskaya	3-я Радиальная ул. (выс., пос.)	37.67972054	55.60669297	А151
1345	Sokolnicheskaya	Спортивная ул.	37.67235437694435	55.61022575988695	А151
1346	Sokolnicheskaya	Спортивная ул.	37.66994738	55.61002054	А151
1347	Sokolnicheskaya	Стадион Огонек	37.66688282	55.61013582	А151
1348	Sokolnicheskaya	Метро Тушинская (пос.)	37.4362089	55.82565546	А151
1349	Sokolnicheskaya	Ул. Мусы Джалиля, 38	37.74388032	55.61787439	А151
1350	Sokolnicheskaya	Ул. Мусы Джалиля, 38	37.74372345	55.6170427	А151
1351	Sokolnicheskaya	Метро Красногвардейская	37.74413026	55.61451002	А151
1352	Sokolnicheskaya	Метро Красногвардейская	37.74432812	55.61487971	А151
1353	Sokolnicheskaya	Метро Шипиловская	37.74298017	55.62113006	А151
1354	Sokolnicheskaya	Метро Шипиловская	37.7434821722	55.6201279528	А151
1355	Sokolnicheskaya	Шипиловский ЗАГС	37.69523002	55.61724204	А151
1356	Sokolnicheskaya	Метро Орехово	37.6948766	55.61479422	А151К
1357	Sokolnicheskaya	Метро Орехово	37.69427535	55.61429086	А151К
1358	Sokolnicheskaya	Поликлиника № 220	37.56983376	55.76031777	А152
1359	Sokolnicheskaya	Ул. Заморенова	37.56349231	55.76194706	А152
1360	Sokolnicheskaya	Черемушкинский рынок	37.54989061	55.68258285	А153
1361	Sokolnicheskaya	Черемушкинский рынок	37.55134181	55.68319566	А153
1362	Sokolnicheskaya	Метро Владыкино	37.58957362	55.84889637	А154
1363	Sokolnicheskaya	Гост. Восход	37.58656394	55.84830854	А154
1364	Sokolnicheskaya	Отрадный пр.	37.60732466	55.8528844	А154
1365	Sokolnicheskaya	Олонецкая улица	37.61543247	55.85046716	А154
1366	Sokolnicheskaya	Метродепо	37.6118948	55.85164695	А154
1367	Sokolnicheskaya	Метродепо	37.61261793	55.85105483	А154
1368	Sokolnicheskaya	Отрадный пр.	37.60803836	55.85288945	А154
1369	Sokolnicheskaya	Сигнальный пр., 35	37.60282047	55.85190528	А154
1370	Sokolnicheskaya	Метро Владыкино	37.59100301	55.84885098	А154
1371	Sokolnicheskaya	Сигнальный пр.	37.59835698	55.84978195	А154
1372	Sokolnicheskaya	Сигнальный пр.	37.59703359	55.84927467	А154
1373	Sokolnicheskaya	Сигнальный проезд, 35	37.60043532	55.85138109	А154
1374	Sokolnicheskaya	Кадетский корпус	37.46359681	55.78508349	А155
1375	Sokolnicheskaya	Ул. Ген. Глаголева, 20	37.46223782	55.78257965	А155
1376	Sokolnicheskaya	Ул. Ген. Глаголева	37.4604969	55.77891886	А155
1377	Sokolnicheskaya	Метро Филевский парк	37.48352179	55.73988564	А155
1378	Sokolnicheskaya	Большая Филёвская улица	37.50950407	55.7516274	А155
1379	Sokolnicheskaya	Детский парк Фили	37.50221342	55.74932498	А155
1380	Sokolnicheskaya	Б. Филевская ул.	37.5070882994	55.7507313905	А155
1381	Sokolnicheskaya	Ул. Ген. Глаголева, 20	37.46289152	55.78300439	А155
1382	Sokolnicheskaya	Нагатинский затон (пос.)	37.70905481	55.68510473	А156
1383	Sokolnicheskaya	Коломенская наб., 6	37.70924808	55.68408342	А156
1384	Sokolnicheskaya	Коломенская наб., 10	37.7074310293	55.6806749905	А156
1385	Sokolnicheskaya	Библиотека им. Симонова	37.70366049	55.6781852	А156
1386	Sokolnicheskaya	Школа	37.69855419	55.67651189	А156
1387	Sokolnicheskaya	Коломенская наб.	37.69381412	55.67523615	А156
1388	Sokolnicheskaya	Диспансер	37.68773487	55.67546205	А156
1389	Sokolnicheskaya	Коломенская наб.	37.69388433	55.67504039	А156
1390	Sokolnicheskaya	Школа	37.69777275	55.67608251	А156
1391	Sokolnicheskaya	Библиотека им. Симонова	37.7046694386	55.6784418901	А156
1392	Sokolnicheskaya	Коломенская наб., 10	37.70700443	55.67991571	А156
1393	Sokolnicheskaya	Коломенская наб., 6	37.70943997	55.68464954	А156
1394	Sokolnicheskaya	Краснохолмский мост	37.647056345	55.7394420033	А156
1395	Sokolnicheskaya	5-й Котельнический пер.	37.64642789	55.74064379	А156
1396	Sokolnicheskaya	Швивая горка	37.64181778	55.74621764	А156
1397	Sokolnicheskaya	Нагатинский затон	37.70808591	55.68532783	А156
1398	Sokolnicheskaya	Нагатинский затон (к/ст)	37.70760975	55.6858834	А156
1399	Sokolnicheskaya	Поликлиника	37.68555547	55.67789286	А156
1400	Sokolnicheskaya	Поликлиника	37.68554388	55.67843726	А156
1401	Sokolnicheskaya	Затонная ул., 7	37.68425155	55.67959172	А156
1402	Sokolnicheskaya	Затонная ул., 7	37.68398437	55.68019104	А156
1403	Sokolnicheskaya	Затонная ул.	37.68043155	55.68241217	А156
1404	Sokolnicheskaya	Затонная ул.	37.68022247	55.68257578	А156
1405	Sokolnicheskaya	Метро Таганская	37.65405689	55.74191804	А156
1406	Sokolnicheskaya	Киевский вокзал	37.56844168	55.74391503	А157
1407	Sokolnicheskaya	Киевский вокзал	37.56780313	55.74555199	А157
1408	Sokolnicheskaya	Ул. Петра Алексеева	37.42942445	55.72090368	А157К
1409	Sokolnicheskaya	Ул. Гришина	37.42186325	55.71919354	А157К
1410	Sokolnicheskaya	Метро Славянский бульвар	37.4726904963	55.7284625114	А157К
1411	Sokolnicheskaya	Беловежская ул. (к/ст)	37.39475205	55.70693698	А157К
1412	Sokolnicheskaya	Беловежская ул. (пос.)	37.39574884	55.70710206	А157К
1413	Sokolnicheskaya	Вяземская ул.	37.40157398	55.71537301	А157К
1414	Sokolnicheskaya	Беловежская ул., 19	37.39427619	55.71423174	А157К
1415	Sokolnicheskaya	Поликлиника	37.39335453	55.7086245	А157К
1416	Sokolnicheskaya	Беловежская ул. (выс.)	37.39422267	55.7080098	А157К
1417	Sokolnicheskaya	Поликлиника	37.39277016	55.70934428	А157К
1418	Sokolnicheskaya	Беловежская ул., 19	37.39399301	55.71400331	А157К
1419	Sokolnicheskaya	Вяземская ул.	37.40209288	55.71518298	А157К
1420	Sokolnicheskaya	2-й Раушский пер.	37.633394	55.74647847	А158
1421	Sokolnicheskaya	2-й Раушский переулок	37.63488107138734	55.74585645791189	А158
1422	Sokolnicheskaya	Ул. Балчуг	37.62552066628979	55.74638669723269	А158
1423	Sokolnicheskaya	Метро Окская	37.77831481	55.71794203	А159
1424	Sokolnicheskaya	Окская ул.	37.77566212	55.71506724	А159
1425	Sokolnicheskaya	Волгоградский просп., 47	37.72438863	55.7115672	А159
1426	Sokolnicheskaya	Витебская ул.	37.40858273	55.71377096	А16
1427	Sokolnicheskaya	МФЦ района Можайский	37.42205517	55.72633316	А16
1428	Sokolnicheskaya	МЦД Рабочий Посёлок	37.4173784	55.72622925	А16
1429	Sokolnicheskaya	Кунцевский рынок	37.409126	55.7257369	А16
1430	Sokolnicheskaya	МЦД Кунцевская	37.44627301	55.72630461	А16
1431	Sokolnicheskaya	Ул. Ращупкина	37.4399579658	55.7263662489	А16
1432	Sokolnicheskaya	Ул. Багрицкого	37.4358362854	55.7263762474	А16
1433	Sokolnicheskaya	Ул. Красных Зорь	37.4291237746	55.726429959	А16
1434	Sokolnicheskaya	Спорткомплекс Сетунь	37.40685716	55.72155725	А16
1435	Sokolnicheskaya	Метро Кунцевская	37.44711664	55.73119776	А16
1436	Sokolnicheskaya	Гвардейская ул.	37.42482058	55.72625844	А16
1437	Sokolnicheskaya	Ул. Красных Зорь	37.4297932554	55.7262158594	А16
1438	Sokolnicheskaya	Ул. Багрицкого	37.4357134885	55.7261798268	А16
1439	Sokolnicheskaya	Ул. Ращупкина	37.44057412	55.72614543	А16
1440	Sokolnicheskaya	МЦД Кунцевская	37.4466401	55.7260987	А16
1441	Sokolnicheskaya	Витебская ул.	37.40918904	55.71363071	А16
1442	Sokolnicheskaya	Харьковский пр., 9	37.6389968274	55.5893923326	А160
1443	Sokolnicheskaya	Харьковский пр., 9	37.6388722106	55.5889680683	А160
1444	Sokolnicheskaya	Культурный центр Дружба	37.64191801	55.59417339	А160
1445	Sokolnicheskaya	Культурный центр Дружба	37.64085904	55.5939051	А160
1446	Sokolnicheskaya	Харьковский пр. (выс.)	37.6489639	55.59709683	А160
1447	Sokolnicheskaya	Харьковский пр. (пос.)	37.64809918	55.59698367	А160
1448	Sokolnicheskaya	Харьковский пр., 7	37.6391617	55.59212038	А160
1449	Sokolnicheskaya	Харьковский пр., 7	37.6388389026	55.5916599833	А160
1450	Sokolnicheskaya	Харьковский пр., 1	37.64601796	55.59589103	А160
1451	Sokolnicheskaya	Харьковский пр., 1	37.64536326	55.59584111	А160
1452	Sokolnicheskaya	Метро Пражская	37.60733438	55.61068154	А1609
1453	Sokolnicheskaya	Волгоградский просп., 47	37.72596186	55.71126536	А161
1454	Sokolnicheskaya	Метро Текстильщики	37.72720538	55.70759088	А161
1455	Sokolnicheskaya	Налоговая инспекция	37.72743747	55.70432917	А161
1456	Sokolnicheskaya	Налоговая инспекция	37.72705442	55.70550494	А161
1457	Sokolnicheskaya	Метро Текстильщики	37.72677565	55.70829752	А161
1458	Sokolnicheskaya	Шоссейная улица, 1	37.72643872	55.69870599	А161
1459	Sokolnicheskaya	Шоссейная улица, 1	37.72689039	55.69872753	А161
1460	Sokolnicheskaya	Бакинская ул., 29	37.65781344	55.61814812	А162
1461	Sokolnicheskaya	Бакинская ул., 29	37.65745166	55.61772268	А162
1462	Sokolnicheskaya	Педагогическая ул.	37.6721987278	55.5968461588	А162
1463	Sokolnicheskaya	Педагогическая ул.	37.6720991	55.59539671	А162
1464	Sokolnicheskaya	Севанская ул.	37.65676296	55.62229422	А162
1465	Sokolnicheskaya	Севанская ул.	37.64695728	55.62467042	А162
1466	Sokolnicheskaya	Ряжская ул.	37.67174327	55.58968041	А162
1467	Sokolnicheskaya	Поликлиника	37.66780108	55.59022902	А162
1468	Sokolnicheskaya	Поликлиника	37.66809046	55.58996966	А162
1469	Sokolnicheskaya	Ряжская ул.	37.671983	55.58947591	А162
1470	Sokolnicheskaya	Улица Бехтерева, 5	37.6490489	55.63492583	А162
1471	Sokolnicheskaya	Улица Бехтерева, 25	37.64716382	55.62684416	А162
1472	Sokolnicheskaya	Улица Бехтерева, 25	37.64757573	55.62737251	А162
1473	Sokolnicheskaya	Ул. Бехтерева, 15	37.64831558	55.63058154	А162
1474	Sokolnicheskaya	Метро Кантемировская	37.65359898	55.63771375	А162
1475	Sokolnicheskaya	Ул. Бехтерева, 15	37.64792792	55.63018875	А162
1476	Sokolnicheskaya	Царицынский путепровод	37.66241845	55.61240657	А162
1477	Sokolnicheskaya	Царицынский путепровод	37.66219414	55.61204956	А162
1478	Sokolnicheskaya	6-я Радиальная улица	37.66494143	55.60964681	А162
1479	Sokolnicheskaya	6-я Радиальная улица	37.66556983	55.60831689	А162
1480	Sokolnicheskaya	Севанская ул.	37.64754928	55.62411237	А162
1481	Sokolnicheskaya	Севанская улица, 15	37.65516427	55.62345353	А162
1482	Sokolnicheskaya	Севанская улица, 15	37.6537399467	55.6239173951	А162
